route_name,route_index,stop_id,stop_name,original_latitude,original_longitude,snapped_latitude,snapped_longitude,formatted_address,place_id,search_query
Ennore Bus Stand,0,stop1,Ernavur anna nagar,13.0849557,80.2101342,13.0849555836434,80.21014749449846,"Anna Nagar, Chennai, Tamil Nadu, India",ChIJm3EiiAdkUjoR4oGVuHcQoL0,"Ernavur anna nagar, Ennore Bus Stand, Chennai"
Ennore Bus Stand,0,stop2,Lift Gate,13.1850045,80.3120735,13.184989547761706,80.31207003610656,"Lift Gate, Bharath Nagar, Neidhal Nagar, Tiruvottiyur, Chennai, Tamil Nadu 600057, India",ChIJjZ4Jxy9wUjoRfCXYh5a_v4E,"Lift Gate, Ennore Bus Stand, Chennai"
Ennore Bus Stand,0,stop3,ITC,13.2145944,80.3202929,13.214582250726563,80.3203122018703,"Ennore, Tamil Nadu 600057, India",ChIJS7gITkZwUjoRogavtRBd_sQ,"ITC, Ennore Bus Stand, Chennai"
Ennore Bus Stand,0,stop4,Wimco nagar,13.1802412,80.3057142,13.180276790387934,80.30557429452449,"Wimco Nagar, Ramanathapuram, Tiruvottiyur, Chennai, Tamil Nadu 600057, India",ChIJe2RFHyRwUjoRxUynaswyAoM,"Wimco nagar, Ennore Bus Stand, Chennai"
Ennore Bus Stand,0,stop5,Thiruvottiyur Market,13.1639178,80.3034824,13.163916177403902,80.30352857493824,"Thiruvottiyur Market, Thiruvottiyur High Rd, Tiruvottiyur, Chennai, Tamil Nadu 600019, India",ChIJqf6Yv9xvUjoRTmLXIw_HuGs,"Thiruvottiyur Market, Ennore Bus Stand, Chennai"
Ennore Bus Stand,0,stop6,Theradi,13.2145944,80.3202929,13.214582250726563,80.3203122018703,"Ennore, Tamil Nadu 600057, India",ChIJS7gITkZwUjoRogavtRBd_sQ,"Theradi, Ennore Bus Stand, Chennai"
Ennore Bus Stand,0,stop7,Kaladipet market,13.2145944,80.3202929,13.214582250726563,80.3203122018703,"Ennore, Tamil Nadu 600057, India",ChIJS7gITkZwUjoRogavtRBd_sQ,"Kaladipet market, Ennore Bus Stand, Chennai"
Ennore Bus Stand,0,stop8,Raja Kadai,13.2160762,80.3194153,13.21607449181983,80.31942464186453,"6889+CQM, Sivan Padai St, Kathivakkam, Ennore, Chennai, Tamil Nadu 600057, India",ChIJsQ_vMR9xUjoRY_uY7KYxy-A,"Raja Kadai, Ennore Bus Stand, Chennai"
Ennore Bus Stand,0,stop9,Thangal,13.147959,80.298189,13.147940229783469,80.29823605199259,"Thangal, Thangal, Vasantha Nagar, Rajakadai, Tiruchanankuppam, Chennai, Tamil Nadu 600019, India",ChIJTcdDkJVvUjoR8rxBwBWw68I,"Thangal, Ennore Bus Stand, Chennai"
Ennore Bus Stand,0,stop10,Tollgate,13.14347,80.29639999999999,13.143470017270781,80.29639995631594,"Tollgate Metro, Thangal, Vasantha Nagar, Tondiarpet, Chennai, Tamil Nadu 600081, India",ChIJ377JV5ZvUjoRcoE4Loya--k,"Tollgate, Ennore Bus Stand, Chennai"
Tondiarpet (RTO Office),1,stop1,Tondiarpet Depot,13.1261062,80.2879959,13.12610148458203,80.28799454472447,"Tondiarpet, Chennai, Tamil Nadu, India",ChIJh9s_r5BvUjoRKw4H6KtqPiw,"Tondiarpet Depot, Tondiarpet (RTO Office), Chennai"
Tondiarpet (RTO Office),1,stop2,Kasimedu,13.1251136,80.2955419,13.125107315553846,80.29564962361539,"Kasimedu, Royapuram, Chennai, Tamil Nadu 600013, India",ChIJUzbskm1vUjoRIT4AE1ylr3M,"Kasimedu, Tondiarpet (RTO Office), Chennai"
Tondiarpet (RTO Office),1,stop3,Kasimedu Petrol Bunk,13.1251136,80.2955419,13.125107315553846,80.29564962361539,"Kasimedu, Royapuram, Chennai, Tamil Nadu 600013, India",ChIJUzbskm1vUjoRIT4AE1ylr3M,"Kasimedu Petrol Bunk, Tondiarpet (RTO Office), Chennai"
Tondiarpet (RTO Office),1,stop4,kalmandapam Police Station,13.1158257,80.29484529999999,13.115792362801521,80.29497297652364,"Kalmandapam, Royapuram, Chennai, Tamil Nadu 600013, India",ChIJEaXwkm1vUjoRFNa02rZNYZ8,"kalmandapam Police Station, Tondiarpet (RTO Office), Chennai"
Tondiarpet (RTO Office),1,stop5,ST Anne's School,13.1104695,80.29235190000001,13.1104325,80.29227089999999,"PUDUMANI KUPPAM MAIN BLOCK, ST. ANNE'S GIRLS HIGHER SECONDARY SCHOOL-PUDUMANI KUPPAM, Surya Narayana St, Pudumani Kuppam, Royapuram, Chennai, Tamil Nadu 600013, India",ChIJxUEgR2lvUjoRj5lY0IzrB-8,"ST Anne's School, Tondiarpet (RTO Office), Chennai"
Tondiarpet (RTO Office),1,stop6,Royapuram Bridge,13.1050173,80.28928789999999,13.104944864696504,80.28945021740519,"Royapuram Bridge, Anjaneya Nagar, Old Washermanpet, Chennai, Tamil Nadu 600013, India",ChIJSxjYfkJvUjoR9jrOTXutQnA,"Royapuram Bridge, Tondiarpet (RTO Office), Chennai"
Tondiarpet (RTO Office),1,stop7,Beach Station,13.091686,80.2920659,13.091847559170073,80.29156211767993,"37RR+MRG Beach station, Beach station, Chennai Port Trust, Chennai, Tamil Nadu 600001, India",ChIJJxDOH5ZvUjoRamynddE6Z4s,"Beach Station, Tondiarpet (RTO Office), Chennai"
Tondiarpet (RTO Office),1,stop8,Annamalai Mandram,13.0858633,80.28419439999999,13.086039378771334,80.28423418031213,"Rajah Annamalai Mandram, 5, Esplanade Rd, Esplanade, George Town, Chennai, Tamil Nadu 600104, India",ChIJJ6yqplNvUjoRx9ObD38WQDM,"Annamalai Mandram, Tondiarpet (RTO Office), Chennai"
Tondiarpet (RTO Office),1,stop9,GH (Rajiv Gandhi Hospital),13.0812224,80.2768198,13.08092132214472,80.27684429574596,"Poonamallee High Rd, Periamet, Park Town, Chennai, Tamil Nadu 600003, India",ChIJUXJbp6poUjoRb2mFfjs7zoQ,"GH (Rajiv Gandhi Hospital), Tondiarpet (RTO Office), Chennai"
Tondiarpet (RTO Office),1,stop10,Everest Hotel,13.0807579,80.26881689999999,13.080772322926439,80.26881625863466,"23, Poonamallee High Rd, opp. Sub Registrar Office, Periamet, Adikesavarpuram, Poongavanapuram, Chennai, Tamil Nadu 600003, India",ChIJu2YH1b5nUjoRMdcksyePpls,"Everest Hotel, Tondiarpet (RTO Office), Chennai"
Tondiarpet (RTO Office),1,stop11,Neyveli House,13.0776932,80.2466267,13.077706803612012,80.24660276792822,"154, Poonamallee High Rd, New Bupathy Nagar, Kilpauk, Chennai, Tamil Nadu 600010, India",ChIJzcrE-nZmUjoRfwNNScZBjpg,"Neyveli House, Tondiarpet (RTO Office), Chennai"
Tondiarpet (RTO Office),1,stop12,KMC,13.1318065,80.29214879999999,13.131817239169854,80.29211679756811,"145/3, Balakrishna 1st St, Kasipuram, Tondiarpet, Chennai, Tamil Nadu 600081, India",ChIJC_ucOZxvUjoR9BnCaAd9BOM,"KMC, Tondiarpet (RTO Office), Chennai"
Tondiarpet,2,stop1,Tondiarpet Mani Cycle Shop,13.1251842,80.289183,13.12520769110104,80.28912344931781,"47GQ+3MF, Kesavan St, Sanjeevarayanpet, Tondiarpet, Chennai, Tamil Nadu 600081, India",ChIJ2wdoc3dvUjoRvqBlc6s-k1w,"Tondiarpet Mani Cycle Shop, Tondiarpet, Chennai"
Tondiarpet,2,stop2,Police Quarters,13.1389693,80.28836919999999,13.138953108863118,80.28836280623962,"47QQ+H8Q, Sivan Nagar, Police Colony, Tondiarpet, Chennai, Tamil Nadu 600081, India",ChIJi8kxFmVvUjoRiDLDAKYHYag,"Police Quarters, Tondiarpet, Chennai"
Tondiarpet,2,stop3,Post Office,13.1427586,80.2962417,13.142749992382967,80.29626274528958,"111, Tolgate, Srinivasa Nagar, Tondiarpet, Chennai, Tamil Nadu 600019, India",ChIJxdAIR75vUjoRmwfXbzaf5Fo,"Post Office, Tondiarpet, Chennai"
Tondiarpet,2,stop4,Maharani (Singapore Shoppee),13.1159028,80.283499,13.11595996705457,80.28340360096675,"1065, 1067, Thiruvottiyur High Rd, Mottai Garden, Washermanpet, Chennai, Tamil Nadu 600021, India",ChIJKUa5yWRvUjoRzZWfXjz4Nxc,"Maharani (Singapore Shoppee), Tondiarpet, Chennai"
Ajax,3,stop1,Ajax Bus Depot,43.8611288,-79.0259267,43.861128072482984,-79.02593013095394,"Ajax, ON, Canada",ChIJ0RWtQbTn1IkRzr6A0wHhd_s,"Ajax Bus Depot, Ajax, Chennai"
Ajax,3,stop2,Periyar nagar,13.1138311,80.2250885,13.113542873281517,80.22497221559983,"Periyar Nagar West, Perambur, Chennai, Tamil Nadu 600082, India",ChIJ3-cPGE5kUjoRwvWyvZCG_zc,"Periyar nagar, Ajax, Chennai"
Ajax,3,stop3,Ellaiamman koil,13.158073,80.30137479999999,13.158125657403126,80.30138773513592,"Ellaiamman Koil, S Mada St, Tirumala Avenue, Tirumalai Avenue, Rajakadai, Tiruvottiyur, Chennai, Tamil Nadu 600019, India",ChIJf244LsJvUjoRs_odSDNoivU,"Ellaiamman koil, Ajax, Chennai"
Ajax,3,stop4,Lakshmi koil,13.135157,80.29321,13.135151217141779,80.2932250066307,"Lakshmi Amman Koil, Thiruvottiyur High Rd, New Washermenpet, Tondiarpet, Chennai, Tamil Nadu 600081, India",ChIJzdEJ-ZtvUjoR1ghwOQPM5ts,"Lakshmi koil, Ajax, Chennai"
Ajax,3,stop5,Cemetery road,13.1092187,80.2861011,13.109218700000001,80.2861011,"Cemetery Rd, Chennai, Tamil Nadu, India",ChIJiRTeRGZvUjoRJbsAUElyrnA,"Cemetery road, Ajax, Chennai"
Ajax,3,stop6,Mint Old Bus stand,13.0843007,80.2704622,13.0843007,80.2704622,"Chennai, Tamil Nadu, India",ChIJYTN9T-plUjoRM9RjaAunYW4,"Mint Old Bus stand, Ajax, Chennai"
Ajax,3,stop7,Mint New Bus stand,13.1236427,80.2654882,13.12364531855353,80.26528114024676,"47F8+C65, Block H3 & H4, Mahakavi Bharathiyar Nagar East, Vasantham Garden, Vyasarpadi, Chennai, Tamil Nadu 600039, India",ChIJ_b6cLwBlUjoRhDJFD63w8VE,"Mint New Bus stand, Ajax, Chennai"
Ajax,3,stop8,Padmanabha Theatre,13.101126,80.274931,13.101090705431137,80.27483238948635,"Padmanabha Theatre, Peddanaickenpet, George Town, Chennai, Tamil Nadu 600001, India",ChIJ4QxiufVlUjoRJuXFNs0SEk8,"Padmanabha Theatre, Ajax, Chennai"
Choolai,4,stop1,Choolai post office,13.0904122,80.2655501,13.090408033354784,80.26560710041655,"37R8+567, Tiru Narayana Guru Rd, Choolai, Chennai, Tamil Nadu 600112, India",ChIJ0c431eRlUjoR7nM_o3t1geE,"Choolai post office, Choolai, Chennai"
Choolai,4,stop2,Veperi Police Station,13.0853311,80.2607068,13.085448899999998,80.2604248,"Periamet, Vepery, Chennai, Tamil Nadu, India",ChIJqRXoMOJlUjoRv6Xy0rbfqLA,"Veperi Police Station, Choolai, Chennai"
Choolai,4,stop3,Muthumari amman Koil- Pursaiwakkam,13.1108817,80.2204402,13.1108817,80.2204402,"Muthumari Amman Koil, Chennai, Tamil Nadu 600082, India",ChIJNUG8aE9kUjoRCCiWePO3ogc,"Muthumari amman Koil- Pursaiwakkam, Choolai, Chennai"
Choolai,4,stop4,Gangadeeswarar Koil,13.083655,80.2545824,13.083654999999998,80.2545824,"Gangadeeshwar Koil St, Purasaiwakkam, Chennai, Tamil Nadu 600084, India",ChIJRSj1d-BlUjoRoOXhjSCHc_4,"Gangadeeswarar Koil, Choolai, Chennai"
Choolai,4,stop5,Alagappa Road,13.0817742,80.2528355,13.081774315454545,80.25283543730274,"Alagappa Rd, Purasaiwakkam, Chennai, Tamil Nadu, India",ChIJgQWt8nVmUjoRZ84c4ANJwGg,"Alagappa Road, Choolai, Chennai"
Choolai,4,stop6,Pathala Ponniammam Koil,13.1039275,80.2850881,13.1039275,80.2850881,"Ponniamman Koil St, George Town, Chennai, Tamil Nadu 600001, India",ChIJGf3yoV1vUjoR1OnHCU2fyBM,"Pathala Ponniammam Koil, Choolai, Chennai"
Choolai,4,stop7,Motcham theatre,13.0845859,80.2503526,13.084589351884746,80.2503338387272,"37M2+R4Q, Millers Rd, Kilpauk, Chennai, Tamil Nadu 600010, India",ChIJzZUn4d5lUjoRQakqJILharI,"Motcham theatre, Choolai, Chennai"
Choolai,4,stop8,Mummy Daddy,13.0983799,80.2604903,13.098377689885213,80.26048864645547,"37X6+955, Demellows Rd, Pattalam, Pulianthope, Chennai, Tamil Nadu 600012, India",ChIJNYnlru5lUjoRboueozgxBvM,"Mummy Daddy, Choolai, Chennai"
Dovton Bridge,5,stop1,Muthumariamman kovil (Dovton Bridge),13.0868849,80.25907649999999,13.086899121231463,80.25907860216714,"Doveton Bridge, Jermiah Rd, Periamet, Vepery, Chennai, Tamil Nadu 600007, India",ChIJMc7jTuFlUjoRsIozImdd3Xg,"Muthumariamman kovil (Dovton Bridge), Dovton Bridge, Chennai"
Dovton Bridge,5,stop2,Kellys - Signal,13.0868849,80.25907649999999,13.086899121231463,80.25907860216714,"Doveton Bridge, Jermiah Rd, Periamet, Vepery, Chennai, Tamil Nadu 600007, India",ChIJMc7jTuFlUjoRsIozImdd3Xg,"Kellys - Signal, Dovton Bridge, Chennai"
Dovton Bridge,5,stop3,Murugan Hospital,13.0868849,80.25907649999999,13.086899121231463,80.25907860216714,"Doveton Bridge, Jermiah Rd, Periamet, Vepery, Chennai, Tamil Nadu 600007, India",ChIJMc7jTuFlUjoRsIozImdd3Xg,"Murugan Hospital, Dovton Bridge, Chennai"
Dovton Bridge,5,stop4,Kallarai- Road,13.0868849,80.25907649999999,13.086899121231463,80.25907860216714,"Doveton Bridge, Jermiah Rd, Periamet, Vepery, Chennai, Tamil Nadu 600007, India",ChIJMc7jTuFlUjoRsIozImdd3Xg,"Kallarai- Road, Dovton Bridge, Chennai"
Dovton Bridge,5,stop5,Periyapalayathamman Temple,13.0868849,80.25907649999999,13.086899121231463,80.25907860216714,"Doveton Bridge, Jermiah Rd, Periamet, Vepery, Chennai, Tamil Nadu 600007, India",ChIJMc7jTuFlUjoRsIozImdd3Xg,"Periyapalayathamman Temple, Dovton Bridge, Chennai"
Dovton Bridge,5,stop6,Shenoy nagar Bus Stop,13.081553,80.22531099999999,13.081502858782516,80.22530912674458,"Shenoy Nagar, Pulla Ave, Bharathi Puram, Annanagar East, Chennai, Tamil Nadu 600030, India",ChIJy1g-6ilkUjoRiZJDWH_dh70,"Shenoy nagar Bus Stop, Dovton Bridge, Chennai"
Chintadripet,6,stop1,Chintadripet Fish Market,13.0755096,80.2694866,13.075460793953013,80.2694738546269,"38, Arunachala St, Egmore, Arunachala Street, Egmore, Adikesavarpuram, Chintadripet, Chennai, Tamil Nadu 600002, India",ChIJY9bAfgBnUjoRNjpVR-Edw_4,"Chintadripet Fish Market, Chintadripet, Chennai"
Chintadripet,6,stop2,Chintadripet Market,13.0752459,80.269791,13.075371281913837,80.26982618843769,"Swamy Pandaram St, Chintadripet, Chennai, Tamil Nadu 600002, India",ChIJF8VQyQVmUjoRt1ie1MZb3Zw,"Chintadripet Market, Chintadripet, Chennai"
Chintadripet,6,stop3,Chintadripet Police Quarters,13.0680968,80.2630339,13.0680968,80.2630339,"Police Quarters Ln, Pudupet, Komaleeswaranpet, Egmore, Chennai, Tamil Nadu 600002, India",ChIJmcmSShBmUjoR2iWt5rRIIdI,"Chintadripet Police Quarters, Chintadripet, Chennai"
Chintadripet,6,stop4,Pudupet,13.0690843,80.264191,13.069018475228042,80.26419742648669,"Pudupet, Komaleeswaranpet, Egmore, Chennai, Tamil Nadu, India",ChIJn8geEBBmUjoR-iqyz06i_fE,"Pudupet, Chintadripet, Chennai"
Chintadripet,6,stop5,Egmore Court,13.073011,80.26199,13.072995382024748,80.2619848873792,"Egmore Court, Pudupet, Komaleeswaranpet, Egmore, Chennai, Tamil Nadu 600008, India",ChIJh8coXw5mUjoRr-WnuP4iCMo,"Egmore Court, Chintadripet, Chennai"
Chintadripet,6,stop6,Rajarthinam Stadium,13.0675072,80.2617137,13.067565446497763,80.26108451672798,"Rukmani Lakshmipathi Rd, opposite to vijaya bank, Pudupet, Komaleeswaranpet, Egmore, Chennai, Tamil Nadu 600002, India",ChIJt__JCxFmUjoReSHFU5asp5o,"Rajarthinam Stadium, Chintadripet, Chennai"
Chintadripet,6,stop7,Egmore (Co-Optex) Bridge,13.0680138,80.2549994,13.067824490291416,80.25520127361551,"350, Pantheon Rd, Sulaiman Zackria Avenue, Egmore, Chennai, Tamil Nadu 600008, India",ChIJVRvizxJmUjoRLJmkuhHiGEU,"Egmore (Co-Optex) Bridge, Chintadripet, Chennai"
Chintadripet,6,stop8,Halls Road Junction,13.0734014,80.2564261,13.073401400000002,80.2564261,"Tamil Salai, Egmore, Chennai, Tamil Nadu 600008, India",ChIJQRRx4QxmUjoRXpDHyW9gtNk,"Halls Road Junction, Chintadripet, Chennai"
Chintadripet,6,stop9,Chepet Signal,13.0749917,80.2697653,13.074843520908297,80.26972393633537,"Chintadripet, Chennai, Tamil Nadu, India",ChIJiTxWwgRmUjoRLq6ETQcCAyI,"Chepet Signal, Chintadripet, Chennai"
Chintadripet,6,stop10,Harington Road Junction,13.069382,80.2370451,13.069381999999997,80.2370451,"Harrington Rd, Chennai, Tamil Nadu, India",ChIJIW5ZhH1mUjoRVSGC9XYESuc,"Harington Road Junction, Chintadripet, Chennai"
Chintadripet,6,stop11,Pantaloon,13.061336,80.261307,13.06111647976623,80.26150916219325,"768, அண்ணா சாலை, Anna Salai, Chintadripet, Chennai, Tamil Nadu 600002, India",ChIJmY03fRZmUjoRcOQOWOB1rIk,"Pantaloon, Chintadripet, Chennai"
Chintadripet,6,stop12,Skywalk bridge,13.0763106,80.26580229999999,13.076341601970885,80.26580845151572,"Bridge, Arunachallam St, Komaleeswaranpet, Chintadripet, Chennai, Tamil Nadu 600002, India",ChIJbe2lAAZmUjoRs4IuTgo6ur0,"Skywalk bridge, Chintadripet, Chennai"
Loyola College,7,stop1,Loyola College,13.0629294,80.2334959,13.06278774165464,80.23349736861711,"24, 9, Nelson Manickam Rd, Nungambakkam, Chennai, Tamil Nadu 600034, India",ChIJs8q5QoRnUjoRJ-xgHECGPf4,"Loyola College, Loyola College, Chennai"
Loyola College,7,stop2,Nungambakkam Railway Station,13.0644396,80.232619,13.064448714887689,80.2325179956278,"Nungambakkam, Railway Border Rd, Sowrashtra Nagar, Choolaimedu, Chennai, Tamil Nadu 600094, India",ChIJ3RWncWJmUjoR37H5hJC124Q,"Nungambakkam Railway Station, Loyola College, Chennai"
Loyola College,7,stop3,Mehta Nagar,13.0629294,80.2334959,13.06278774165464,80.23349736861711,"24, 9, Nelson Manickam Rd, Nungambakkam, Chennai, Tamil Nadu 600034, India",ChIJs8q5QoRnUjoRJ-xgHECGPf4,"Mehta Nagar, Loyola College, Chennai"
Loyola College,7,stop4,Anna Arch,13.0629294,80.2334959,13.06278774165464,80.23349736861711,"24, 9, Nelson Manickam Rd, Nungambakkam, Chennai, Tamil Nadu 600034, India",ChIJs8q5QoRnUjoRJ-xgHECGPf4,"Anna Arch, Loyola College, Chennai"
Loyola College,7,stop5,Arumpakkam- Indian Hospital,13.0629294,80.2334959,13.06278774165464,80.23349736861711,"24, 9, Nelson Manickam Rd, Nungambakkam, Chennai, Tamil Nadu 600034, India",ChIJs8q5QoRnUjoRJ-xgHECGPf4,"Arumpakkam- Indian Hospital, Loyola College, Chennai"
Chintamani,8,stop1,Chintamani,13.0856126,80.22405359999999,13.085667156406519,80.22417252877186,"Chintamani, 1st Ave, G Block, Annanagar East, Chennai, Tamil Nadu 600102, India",ChIJlVw5KSlkUjoRDOh6Q81Q70c,"Chintamani, Chintamani, Chennai"
Chintamani,8,stop2,K3 Police station,13.0812048,80.2179792,13.081209135259437,80.21793651320701,"3rd Avenue, Shenoy Nagar, Anna Arch Rd, NSK Nagar, Arumbakkam, Chennai, Tamil Nadu 600106, India",ChIJ5yQzdCdkUjoRwKIxWTya3pQ,"K3 Police station, Chintamani, Chennai"
Chintamani,8,stop3,Razack Garden,13.0740394,80.2164456,13.074095011321887,80.2164541498359,"Razaak Garden, Ayyavoo Colony, Aminjikarai, Chennai, Tamil Nadu 600106, India",ChIJtbfc7ZtmUjoRZ-qPBTL8DyY,"Razack Garden, Chintamani, Chennai"
Chintamani,8,stop4,MMDA,13.1684411,80.24502629999999,13.16844213712294,80.24499868291267,"MMDA, TNHB Layout, Mathur, Tamil Nadu 600068, India",ChIJTZNKMjJlUjoR0jNhM0BVylU,"MMDA, Chintamani, Chennai"
Chintamani,8,stop5,MMDA Bus Depot,13.065185,80.2113182,13.065134809993124,80.21123799236376,"M.M.D.A., Jawaharlal Nehru Salai, Ashoka Nagar, Sri Sakthi Nagar, Balavinayagar Nagar, Chennai, Tamil Nadu 600106, India",ChIJ9-1lSJZmUjoRq92sn-T-t1E,"MMDA Bus Depot, Chintamani, Chennai"
Maduravoyal Erikarai,9,stop1,Maduravoyal Erikarai,13.061556,80.1433335,13.061490693884322,80.14333785853717,"Madhuravoyal Earikarai, Ganga Nagar, Chennai, Tamil Nadu 600077, India",ChIJG7mSGHZhUjoRkP1ciYgIKbQ,"Maduravoyal Erikarai, Maduravoyal Erikarai, Chennai"
Maduravoyal Erikarai,9,stop2,Vanagaram bus stop,13.0603972,80.15475579999999,13.06041162842412,80.15475599960374,"3563+5W2, NH 48, Sivabatham, Maduravoyal, Chennai, Tamil Nadu 600095, India",ChIJ74WgCtphUjoRA791MOs5yH4,"Vanagaram bus stop, Maduravoyal Erikarai, Chennai"
Maduravoyal Erikarai,9,stop3,Shrivari Signal,13.0686094,80.1831219,13.068609399999998,80.1831219,"Erikarai St, Pallavan Nagar, Koyambedu, Chennai, Tamil Nadu, India",ChIJn7N-ElJhUjoRI3OM4auiSrk,"Shrivari Signal, Maduravoyal Erikarai, Chennai"
Maduravoyal Erikarai,9,stop4,Velappanchavadi (Harsha Toyota),13.0686094,80.1831219,13.068609399999998,80.1831219,"Erikarai St, Pallavan Nagar, Koyambedu, Chennai, Tamil Nadu, India",ChIJn7N-ElJhUjoRI3OM4auiSrk,"Velappanchavadi (Harsha Toyota), Maduravoyal Erikarai, Chennai"
Thirunagar (Ambica Empire Hotel),10,stop1,Thirunagar (Ambica Empire Hotel),13.0557401,80.21116549999999,13.055754448833062,80.21094888909829,"79, Jawaharlal Nehru Salai, Thiru Nagar Colony, NGO Colony, Vadapalani, Chennai, Tamil Nadu 600026, India",ChIJrV9qfUteUjoR1kJK_CZdxVE,"Thirunagar (Ambica Empire Hotel), Thirunagar (Ambica Empire Hotel), Chennai"
Thirunagar (Ambica Empire Hotel),10,stop2,Vallavan Hotel,13.0546842,80.2129595,13.05470476089369,80.21296060046915,"Thirunagar, Vadapalani, Chennai, Tamil Nadu 600026, India",ChIJa80iAOtmUjoRVss_YGmMnB0,"Vallavan Hotel, Thirunagar (Ambica Empire Hotel), Chennai"
Thirunagar (Ambica Empire Hotel),10,stop3,SAF Games Village,13.0648085,80.20773,13.064628174909986,80.20771076010128,"SAF Games Village, Annai Sathya Nagar, Koyambedu, Chennai, Tamil Nadu, India",ChIJOc2wur1mUjoRPtEBWq2Snqw,"SAF Games Village, Thirunagar (Ambica Empire Hotel), Chennai"
Thirunagar (Ambica Empire Hotel),10,stop4,Vijayakanth kalayana Mandapam,13.0745851,80.2001034,13.074523601364618,80.19994191034961,"j n saalai, 36F2+R2Q, Jawaharlal Nehru Salai, Janakiraman Colony, Koyambedu, Chennai, Tamil Nadu 600107, India",ChIJOfyT0mdnUjoRWqmp_ulCWJQ,"Vijayakanth kalayana Mandapam, Thirunagar (Ambica Empire Hotel), Chennai"
Thirunagar (Ambica Empire Hotel),10,stop5,Toyota Show Room,13.0557401,80.21116549999999,13.055754448833062,80.21094888909829,"79, Jawaharlal Nehru Salai, Thiru Nagar Colony, NGO Colony, Vadapalani, Chennai, Tamil Nadu 600026, India",ChIJrV9qfUteUjoR1kJK_CZdxVE,"Toyota Show Room, Thirunagar (Ambica Empire Hotel), Chennai"
Thirunagar (Ambica Empire Hotel),10,stop6,Jems Apartment,13.0546842,80.2129595,13.05470476089369,80.21296060046915,"Thirunagar, Vadapalani, Chennai, Tamil Nadu 600026, India",ChIJa80iAOtmUjoRVss_YGmMnB0,"Jems Apartment, Thirunagar (Ambica Empire Hotel), Chennai"
Thirunagar (Ambica Empire Hotel),10,stop7,Nerkundram,13.0546842,80.2129595,13.05470476089369,80.21296060046915,"Thirunagar, Vadapalani, Chennai, Tamil Nadu 600026, India",ChIJa80iAOtmUjoRVss_YGmMnB0,"Nerkundram, Thirunagar (Ambica Empire Hotel), Chennai"
Thirunagar (Ambica Empire Hotel),10,stop8,Vengaya Mandi,13.0546842,80.2129595,13.05470476089369,80.21296060046915,"Thirunagar, Vadapalani, Chennai, Tamil Nadu 600026, India",ChIJa80iAOtmUjoRVss_YGmMnB0,"Vengaya Mandi, Thirunagar (Ambica Empire Hotel), Chennai"
Thirunagar (Ambica Empire Hotel),10,stop9,College campus,13.0546842,80.2129595,13.05470476089369,80.21296060046915,"Thirunagar, Vadapalani, Chennai, Tamil Nadu 600026, India",ChIJa80iAOtmUjoRVss_YGmMnB0,"College campus, Thirunagar (Ambica Empire Hotel), Chennai"
New Avadi Road Water Tank,11,stop1,New Avadi Road Water Tank,13.0957003,80.2213611,13.095700299999999,80.2213611,"New Avadi Rd, Chennai, Tamil Nadu, India",ChIJ6XjqZRVkUjoRuVycbMuVnpQ,"New Avadi Road Water Tank, New Avadi Road Water Tank, Chennai"
New Avadi Road Water Tank,11,stop2,Gangaiamman koil,13.0891682,80.229844,13.08925081391552,80.22988658500056,"96, Gujji Main Rd, Kumaran Nagar, Kilpauk, Chennai, Tamil Nadu 600102, India",ChIJRZNQS3FlUjoRzuNitqjR00o,"Gangaiamman koil, New Avadi Road Water Tank, Chennai"
New Avadi Road Water Tank,11,stop3,Lotus Colony,13.0922633,80.22249099999999,13.092086284148202,80.22248120972424,"Lotus colony, N Block, Annanagar East, Chennai, Tamil Nadu 600102, India",ChIJ-y6zegBlUjoRjzSAEfP71D8,"Lotus Colony, New Avadi Road Water Tank, Chennai"
New Avadi Road Water Tank,11,stop4,14- Shop,13.0828802,80.2269476,13.082887699239262,80.22706298062923,"Shop No 4, Cement Road, next to Hap Daily Arokya Milk, Tamilar Nagar, KVN Puram, Shenoy Nagar, Chennai, Tamil Nadu 600030, India",ChIJ57_yLipkUjoRY0KcyxCnbqk,"14- Shop, New Avadi Road Water Tank, Chennai"
New Avadi Road Water Tank,11,stop5,Kandasamy College,13.0855509,80.2183376,13.085557635856556,80.21812385137828,"E7, 3rd Ave, Block E, Annanagar East, Chennai, Tamil Nadu 600102, India",ChIJExXDeSZkUjoRqaOvNTq6arw,"Kandasamy College, New Avadi Road Water Tank, Chennai"
New Avadi Road Water Tank,11,stop6,Nalli Silks,13.0845526,80.2155027,13.08455386265543,80.21541876234627,"13, 2nd Ave, Lapis lagoon, AA Block, Shanthi Colony, Anna Nagar, Chennai, Tamil Nadu 600040, India",ChIJ9TxYtCZkUjoRZI-GS5LhiE0,"Nalli Silks, New Avadi Road Water Tank, Chennai"
New Avadi Road Water Tank,11,stop7,Ayyappan Temple,13.0851268,80.21313649999999,13.085137691442107,80.21295396153032,"C-45, 2 nd Avenue Road, X42, 6th Main Rd, Opposite Annanagar Visveswaraya Tower Park, Opposite KHM Hospital, X Block, Y Block, Anna Nagar, Chennai, Tamil Nadu 600040, India",ChIJX-CoeyFkUjoRtmVPJqmE_a4,"Ayyappan Temple, New Avadi Road Water Tank, Chennai"
New Avadi Road Water Tank,11,stop8,Blue star,13.0887715,80.2253319,13.088777983370367,80.22529768430788,"36QG+G44, 1st Ave, R.V. Nagar, Thiruvalluvar Nagar, Kilpauk Garden Colony, Kilpauk, Chennai, Tamil Nadu 600102, India",ChIJ9fvzii5kUjoRuH0RJUOaRXw,"Blue star, New Avadi Road Water Tank, Chennai"
New Avadi Road Water Tank,11,stop9,Tower Park Metro Station,13.0863811,80.2153391,13.086374275219022,80.21549237186126,"36P8+H44 Tower Park, Unnamed Road, X Block, Tower Park, Anna Nagar, Chennai, Tamil Nadu 600040, India",ChIJ-YzF5CNkUjoR7de2hm2mFtc,"Tower Park Metro Station, New Avadi Road Water Tank, Chennai"
New Avadi Road Water Tank,11,stop10,Santhosh Super Market,13.0849031,80.2059474,13.0850516356087,80.20595467667181,"C33, 2nd Ave, near 11th Main Road, A E Block, Block AE, Anna Nagar, Chennai, Tamil Nadu 600040, India",ChIJRbvlCRxkUjoRk8R8e3oSyek,"Santhosh Super Market, New Avadi Road Water Tank, Chennai"
New Avadi Road Water Tank,11,stop11,Hot chips,13.0965622,80.201461,13.096544744116834,80.20161052013304,"36, Tirumangalam Rd, Navalar Nagar, Kambar Colony, I Block, Anna Nagar, Chennai, Tamil Nadu 600040, India",ChIJSQtsfxFkUjoRlT-Z8rf-o7I,"Hot chips, New Avadi Road Water Tank, Chennai"
New Avadi Road Water Tank,11,stop12,Senthil Nursing Home,13.0957003,80.2213611,13.095700299999999,80.2213611,"New Avadi Rd, Chennai, Tamil Nadu, India",ChIJ6XjqZRVkUjoRuVycbMuVnpQ,"Senthil Nursing Home, New Avadi Road Water Tank, Chennai"
New Avadi Road Water Tank,11,stop13,CPWD Quarters,13.0957003,80.2213611,13.095700299999999,80.2213611,"New Avadi Rd, Chennai, Tamil Nadu, India",ChIJ6XjqZRVkUjoRuVycbMuVnpQ,"CPWD Quarters, New Avadi Road Water Tank, Chennai"
Anna Nagar East,12,stop1,Anna Nagar RTO Office,13.095227,80.222464,13.095282826898451,80.22248488508312,"R.T.O. Office, Annai Sathya Nagar, Annanagar East, Chennai, Tamil Nadu 600102, India",ChIJsQyr8jBkUjoRnN4ipVnIVn0,"Anna Nagar RTO Office, Anna Nagar East, Chennai"
Anna Nagar East,12,stop2,Anna Nagar East 1st Avenue,13.0892506,80.2236005,13.0892506,80.2236005,"1st Ave, Annanagar East, Chennai, Tamil Nadu, India",EjMxc3QgQXZlLCBBbm5hbmFnYXIgRWFzdCwgQ2hlbm5haSwgVGFtaWwgTmFkdSwgSW5kaWEiLiosChQKEgnncjIAL2RSOhH-dEqj8pEFnhIUChIJi-uxhthlUjoRI9iqOkDB4M4,"Anna Nagar East 1st Avenue, Anna Nagar East, Chennai"
Anna Nagar East,12,stop3,Anna Nagar East 6th Avenue,13.0921611,80.2203324,13.0921611,80.2203324,"6th Ave, Annanagar East, Chennai, Tamil Nadu, India",EjM2dGggQXZlLCBBbm5hbmFnYXIgRWFzdCwgQ2hlbm5haSwgVGFtaWwgTmFkdSwgSW5kaWEiLiosChQKEgkzlolAPWRSOhEUtQiZrQYh4BIUChIJi-uxhthlUjoRI9iqOkDB4M4,"Anna Nagar East 6th Avenue, Anna Nagar East, Chennai"
Anna Nagar East,12,stop4,Chennai Mobiles,13.0920831,80.2184529,13.092145023711163,80.2184115389814,"90, 3rd Ave, J Block, Anna Nagar, Chennai, Tamil Nadu 600102, India",ChIJtXdHCbllUjoRpo6jYMj-vWw,"Chennai Mobiles, Anna Nagar East, Chennai"
Anna Nagar East,12,stop5,Kovai Palamuthircholai,13.0816154,80.2453396,13.081625274182347,80.24520534603174,"36JW+J4W, Ormes Rd, Kilpauk, Chennai, Tamil Nadu 600010, India",ChIJ-XGjcNhlUjoRG6Raw3M0t68,"Kovai Palamuthircholai, Anna Nagar East, Chennai"
Anna Nagar East,12,stop6,Akshyam Hotel,13.051144,80.21750329999999,13.05114006910045,80.21767446977398,"81, Arcot Rd, New Colony, Thalaiyari Palaiyam, Valasaravakkam, Chennai, Tamil Nadu 600093, India",ChIJjVdIlJNnUjoRwRnyRdGmfAE,"Akshyam Hotel, Anna Nagar East, Chennai"
Anna Nagar East,12,stop7,Nuts Piczs,13.0920485,80.2236102,13.092019380364995,80.22360796169453,"Annanagar East, Chennai, Tamil Nadu, India",ChIJi-uxhthlUjoRI9iqOkDB4M4,"Nuts Piczs, Anna Nagar East, Chennai"
Anna Nagar East,12,stop8,SBI Bank - 6th Avenue,13.0921611,80.2203324,13.0921611,80.2203324,"6th Ave, Annanagar East, Chennai, Tamil Nadu, India",EjM2dGggQXZlLCBBbm5hbmFnYXIgRWFzdCwgQ2hlbm5haSwgVGFtaWwgTmFkdSwgSW5kaWEiLiosChQKEgkzlolAPWRSOhEUtQiZrQYh4BIUChIJi-uxhthlUjoRI9iqOkDB4M4,"SBI Bank - 6th Avenue, Anna Nagar East, Chennai"
Anna Nagar East,12,stop9,Bata Show Room,13.0406331,80.237116,13.040782881027436,80.2371367667997,"46, Sir Thyagaraya Rd, near Pondy Bazar, Pondy Bazaar, T. Nagar, Chennai, Tamil Nadu 600017, India",ChIJvQ7Yz1NmUjoRY9nYL739INU,"Bata Show Room, Anna Nagar East, Chennai"
Anna Nagar East,12,stop10,Vijaya Maruthi,13.092746,80.206783,13.092668403353098,80.20677999525923,"Vijaya Maruthi (Anna Nagar), P Block, Vasantham Colony, Anna Nagar, Chennai, Tamil Nadu 600040, India",ChIJoxFWoBdkUjoRfTszcSUaMLg,"Vijaya Maruthi, Anna Nagar East, Chennai"
Anna Nagar East,12,stop11,Reliance Fresh,13.0920485,80.2236102,13.092019380364995,80.22360796169453,"Annanagar East, Chennai, Tamil Nadu, India",ChIJi-uxhthlUjoRI9iqOkDB4M4,"Reliance Fresh, Anna Nagar East, Chennai"
Krishna Nagar (Vellammal School),13,stop1,Vellammal School,13.0508774,80.1690222,13.051027746238791,80.16902507571966,"Sri Krishna Nagar, Maduradoyal, Chennai, Tamil Nadu, 600095, Sri Krishna Nagar, Alapakkam, Porur, Chennai, Tamil Nadu, India",ChIJi37DYz5hUjoR91U5BDGZs1g,"Vellammal School, Krishna Nagar (Vellammal School), Chennai"
Krishna Nagar (Vellammal School),13,stop2,Golden flats,13.0508774,80.1690222,13.051027746238791,80.16902507571966,"Sri Krishna Nagar, Maduradoyal, Chennai, Tamil Nadu, 600095, Sri Krishna Nagar, Alapakkam, Porur, Chennai, Tamil Nadu, India",ChIJi37DYz5hUjoR91U5BDGZs1g,"Golden flats, Krishna Nagar (Vellammal School), Chennai"
Thriumangalam,14,stop1,Thriumangalam EB Bus Stop,13.087081,80.1979442,13.087151247215058,80.1979475318283,"Thirumangalam EB Office, Ambattur Estate Rd, Gaingaiammaannagar, Natarajan Nagar, Thirumangalam, Chennai, Tamil Nadu 600050, India",ChIJwZOrxARkUjoRBQeQtNNwaS4,"Thriumangalam EB Bus Stop, Thriumangalam, Chennai"
Thriumangalam,14,stop2,Collector nagar,13.0865328,80.1892501,13.086597849742963,80.18926615177448,"Collector Nagar, J J Nagar, Mogappair East, Chennai, Tamil Nadu, India",ChIJIz5EbwdkUjoRt9SBM_xU4ag,"Collector nagar, Thriumangalam, Chennai"
Thriumangalam,14,stop3,TSK Nagar,13.083528,80.1944807,13.083553910750112,80.19449034903914,"Thirumangalam, Chennai, Tamil Nadu, India",ChIJX0xEyANkUjoR4I6IMdKodQY,"TSK Nagar, Thriumangalam, Chennai"
SIDCO Villivakkam,15,stop1,SIDCO Villivakkam,13.1043118,80.1979676,13.103745880249171,80.19821942840905,"Sidco Industrial Estate, Villivakkam, Chennai, Tamil Nadu 600049, India",ChIJ6Ry6e21kUjoR0IFep7Grjuo,"SIDCO Villivakkam, SIDCO Villivakkam, Chennai"
SIDCO Villivakkam,15,stop2,Singarampillai School,13.1035773,80.2000327,13.103339060884078,80.20006177940586,"Chennai Tiruvallur High Road, Sidco Industrial Estate, Villivakkam, Sidco Industrial Estate, Villivakkam, Chennai, Tamil Nadu 600049, India",ChIJPSCzP21kUjoR53REFv2nSnE,"Singarampillai School, SIDCO Villivakkam, Chennai"
SIDCO Villivakkam,15,stop3,Anbu Colony,13.1043118,80.1979676,13.103745880249171,80.19821942840905,"Sidco Industrial Estate, Villivakkam, Chennai, Tamil Nadu 600049, India",ChIJ6Ry6e21kUjoR0IFep7Grjuo,"Anbu Colony, SIDCO Villivakkam, Chennai"
SIDCO Villivakkam,15,stop4,Anna Nagar West Depot,13.1043118,80.1979676,13.103745880249171,80.19821942840905,"Sidco Industrial Estate, Villivakkam, Chennai, Tamil Nadu 600049, India",ChIJ6Ry6e21kUjoR0IFep7Grjuo,"Anna Nagar West Depot, SIDCO Villivakkam, Chennai"
Waves,16,stop1,Waves,13.0823732,80.21731590000002,13.082271043071321,80.21731198328652,"2/142, AA Block, Shanthi Colony, Anna Nagar, Chennai, Tamil Nadu 600040, India",ChIJqX--ViBkUjoRp7xNIk-KhNc,"Waves, Waves, Chennai"
Waves,16,stop2,V3 JJ Nagar Police Booth,13.0823732,80.21731590000002,13.082271043071321,80.21731198328652,"2/142, AA Block, Shanthi Colony, Anna Nagar, Chennai, Tamil Nadu 600040, India",ChIJqX--ViBkUjoRp7xNIk-KhNc,"V3 JJ Nagar Police Booth, Waves, Chennai"
Waves,16,stop3,Water Tank,13.0823732,80.21731590000002,13.082271043071321,80.21731198328652,"2/142, AA Block, Shanthi Colony, Anna Nagar, Chennai, Tamil Nadu 600040, India",ChIJqX--ViBkUjoRp7xNIk-KhNc,"Water Tank, Waves, Chennai"
Waves,16,stop4,IOB Mogappair East,13.0823732,80.21731590000002,13.082271043071321,80.21731198328652,"2/142, AA Block, Shanthi Colony, Anna Nagar, Chennai, Tamil Nadu 600040, India",ChIJqX--ViBkUjoRp7xNIk-KhNc,"IOB Mogappair East, Waves, Chennai"
Mogappair East,17,stop1,Spartan school,13.0825029,80.1806647,13.0824264,80.1806161,"11th block, Bharathidasan Salai, Block 11, J J Nagar, Mogappair East, Chennai, Tamil Nadu 600037, India",ChIJ9QblOPxjUjoRtz31Gb4qlaY,"Spartan school, Mogappair East, Chennai"
Mogappair East,17,stop2,Mogappair East Bus Stop (7H),13.085986,80.18227,13.085946103882629,80.18214719643777,"2/7, TS Krishna Nagar, J J Nagar, Mogappair East, Chennai, Tamil Nadu 600050, India",ChIJi-e0YPljUjoRz1ng875uaqk,"Mogappair East Bus Stop (7H), Mogappair East, Chennai"
Mogappair (Golden Flat),18,stop1,SBI,13.0880992,80.179099,13.088149146136615,80.1790992624248,"Golden Flat, Mogappair, Chennai, Tamil Nadu 600050, India",ChIJfx-k9vpjUjoRvXfWi5LKDHY,"SBI, Mogappair (Golden Flat), Chennai"
Mogappair (Golden Flat),18,stop2,Greater Chennai corporation park,13.0822248,80.17715450000001,13.082214457321554,80.1770960300045,"Greater Chennai Corporation Park - VGP Nagar, 50/22, Venugopal St, near Varun Apartment, VGP Nagar, Mogappair, Chennai, Tamil Nadu 600037, India",ChIJR-4mmYxjUjoRBlnvi1ehVps,"Greater Chennai corporation park, Mogappair (Golden Flat), Chennai"
Mogappair (Golden Flat),18,stop3,VGN Service Road,13.0746937,80.1613728,13.074693699999997,80.1613728,"Service Rd, Chennai, Tamil Nadu, India",ChIJN6qwFmlhUjoRpFljeHhMtEg,"VGN Service Road, Mogappair (Golden Flat), Chennai"
Mogappair (Golden Flat),18,stop4,MGR University,13.0685662,80.17823,13.0685662,80.17823,"MGR University Rd, Maduravoyal, Chennai, Tamil Nadu 600095, India",ChIJ8bkbR1BhUjoR-7M5UIJnXPw,"MGR University, Mogappair (Golden Flat), Chennai"
Mogappairt,19,stop1,Grace Super Market,13.0785923,80.1805661,13.078440449552016,80.18061626834103,"No.A10 & B8, 10, Church Rd, Mogappair Industrial Estate, Paneer Nagar, Mogappair East, Chennai, Tamil Nadu 600037, India",ChIJi401i3lhUjoReYZdq9pvmo8,"Grace Super Market, Mogappairt, Chennai"
Mogappairt,19,stop2,Ambedkar Ground,13.0776883,80.1785187,13.078019765309158,80.17847906276451,"Mogappair Eri Scheme, Mogappair East, Chennai, Tamil Nadu 600037, India",ChIJEWVrz1dhUjoR-cfAwM2iPV0,"Ambedkar Ground, Mogappairt, Chennai"
Mogappairt,19,stop3,Velammal School (Mogappair West),13.0790083,80.1751505,13.078763258630357,80.17522432027994,"Block No, 7, 1st Main Rd, Mogappair West, Mogappair East, Chennai, Tamil Nadu 600037, India",ChIJAWwCo-JjUjoRHQCI3fTWCco,"Velammal School (Mogappair West), Mogappairt, Chennai"
Mogappairt,19,stop4,Mogappair Water Tank Road,13.0687657,80.2153218,13.068765700000002,80.2153218,"Water Tank Rd, Chennai, Tamil Nadu, India",ChIJR2bm95lmUjoRGFzUFJFAols,"Mogappair Water Tank Road, Mogappairt, Chennai"
Mogappairt,19,stop5,(7M) Amutha Matri. School,13.0822908,80.16955209999999,13.082372920420264,80.16952995647975,"35J9+WR7, 1st Ave, 4th Block, Mogappair West, Mogappair, Chennai, Tamil Nadu 600037, India",ChIJb3kfquFjUjoRb0-G6aP37RA,"(7M) Amutha Matri. School, Mogappairt, Chennai"
Mogappair West,20,stop1,DRJ Super Market,13.0805983,80.1687714,13.08050771675974,80.16880235484757,"Mogappair West, Ambattur Industrial Estate, Chennai, Tamil Nadu, India",ChIJlcrqP-JjUjoRDY_tpN7ycaM,"DRJ Super Market, Mogappair West, Chennai"
Vyasarpadi (Erikarai),21,stop1,Vyasarpadi (Erikarai),13.113897,80.26056299999999,13.113852574964664,80.26056896735034,"Vyasarpadi Erikarai, Sathyamurthi Nagar, Nagammai Nagar, Vyasarpadi, Chennai, Tamil Nadu 600039, India",ChIJ77DJz5BlUjoREiMGLIwiFl8,"Vyasarpadi (Erikarai), Vyasarpadi (Erikarai), Chennai"
Vyasarpadi (Erikarai),21,stop2,Jeeva Station,13.109009,80.25511,13.109036954743175,80.25510623531612,"Vyasarpadi Jeeva railway station, Kasturi Bai Gandhi Nagar, Vyasarpadi, Chennai, Tamil Nadu 600039, India",ChIJHU6S6ZVlUjoRMf1sAOEyZac,"Jeeva Station, Vyasarpadi (Erikarai), Chennai"
Vyasarpadi (Erikarai),21,stop3,Binny mill Corner,13.102585,80.25271599999999,13.10259428083612,80.25268619824753,"Binny Mill, Shanthi Nagar, Buckingham Carnatic Mills, Jamalia, Chennai, Tamil Nadu 600012, India",ChIJW5gQRMBlUjoRqQSZpsvVfZk,"Binny mill Corner, Vyasarpadi (Erikarai), Chennai"
Vyasarpadi (Erikarai),21,stop4,Otteri,13.113897,80.26056299999999,13.113852574964664,80.26056896735034,"Vyasarpadi Erikarai, Sathyamurthi Nagar, Nagammai Nagar, Vyasarpadi, Chennai, Tamil Nadu 600039, India",ChIJ77DJz5BlUjoREiMGLIwiFl8,"Otteri, Vyasarpadi (Erikarai), Chennai"
Vyasarpadi (Erikarai),21,stop5,Podikadai Bus Stop,13.0972958,80.24866089999999,13.09736603065138,80.24864331020707,"Podi Kadai, Otteri, Egankipuram 2nd St, TNHB Colony, Purasaiwakkam, Chennai, Tamil Nadu 600012, India",ChIJPeVGEsRlUjoRKXBFW7byWLY,"Podikadai Bus Stop, Vyasarpadi (Erikarai), Chennai"
Vyasarpadi (Erikarai),21,stop6,TP Hospital,13.0971025,80.2443612,13.097044222875219,80.24435364346759,"36WV+RPX, Konnur High Rd, Otteri, Ayanavaram, Chennai, Tamil Nadu 600012, India",ChIJS8-NyMVlUjoRSaMJpLE8tm8,"TP Hospital, Vyasarpadi (Erikarai), Chennai"
Vyasarpadi (Erikarai),21,stop7,Ayanavaram - Indian Bank,13.0976374,80.23906819999999,13.09774727202601,80.23907667849284,"36XQ+3J4, KV Kovil Agraharam St, Vasantha nagar, Chinna Chembarambakkam, Ayanavaram, Chennai, Tamil Nadu 600023, India",ChIJGfwQK89lUjoRnINNULrciEc,"Ayanavaram - Indian Bank, Vyasarpadi (Erikarai), Chennai"
Vyasarpadi (Erikarai),21,stop8,Sayani Theatre,13.097794,80.239926,13.097738594154075,80.23992193784906,"Sayani Theatre, Vasantha nagar, Chinna Chembarambakkam, Ayanavaram, Chennai, Tamil Nadu 600023, India",ChIJpYD1Kc9lUjoRc_ZDI2ETlG4,"Sayani Theatre, Vyasarpadi (Erikarai), Chennai"
Binny Mill Church,22,stop1,Jamalia School,13.102585,80.25271599999999,13.10259428083612,80.25268619824753,"Binny Mill, Shanthi Nagar, Buckingham Carnatic Mills, Jamalia, Chennai, Tamil Nadu 600012, India",ChIJW5gQRMBlUjoRqQSZpsvVfZk,"Jamalia School, Binny Mill Church, Chennai"
Binny Mill Church,22,stop2,Binny Mill Church,13.1022282,80.2600243,13.102162013837262,80.25996848270647,"Stephenson Rd, Buckingham Carnatic Mills, Perambur, Chennai, Tamil Nadu 600012, India",ChIJ69xMGY5lUjoRDlz_u3AqAlo,"Binny Mill Church, Binny Mill Church, Chennai"
Binny Mill Church,22,stop3,Noor Hotel,13.098415,80.234931,13.09844174903407,80.23493418664772,"Noor Hotel, Ayanavaram Road, V.P.Colony, Ayanavaram, Chennai, Tamil Nadu 600023, India",ChIJy5jGectlUjoRLIQSHApFZMk,"Noor Hotel, Binny Mill Church, Chennai"
Binny Mill Church,22,stop4,Joint Office,13.099718,80.229782,13.099752473927587,80.22979089712796,"Joint Office, Ayanavaram Rd, United India Nagar, Ayanavaram, Chennai, Tamil Nadu 600023, India",ChIJcwdD6TRkUjoRFZCFIYJvpa0,"Joint Office, Binny Mill Church, Chennai"
Binny Mill Church,22,stop5,Arisi mandi,13.102585,80.25271599999999,13.10259428083612,80.25268619824753,"Binny Mill, Shanthi Nagar, Buckingham Carnatic Mills, Jamalia, Chennai, Tamil Nadu 600012, India",ChIJW5gQRMBlUjoRqQSZpsvVfZk,"Arisi mandi, Binny Mill Church, Chennai"
Binny Mill Church,22,stop6,Kambar Arangam,13.0986274,80.2173956,13.098780617429545,80.21743491891476,"Kambar Arangam, 22/2, 2nd Street, opposite Dr.Ambedkar Auditorium, ICF East Colony, Konnur, Chennai, Tamil Nadu 600038, India",ChIJD4IfXMllUjoRC1CmzXFVcXY,"Kambar Arangam, Binny Mill Church, Chennai"
Binny Mill Church,22,stop7,ICF Signal,13.099983,80.214456,13.09997835768005,80.21447427167013,"I.C.F., ICF West Colony, Konnur, Chennai, Tamil Nadu 600038, India",ChIJ42ZF3D5kUjoRJ5QfIS7NjZI,"ICF Signal, Binny Mill Church, Chennai"
Binny Mill Church,22,stop8,Kallukadai Bus Stop,13.102585,80.25271599999999,13.10259428083612,80.25268619824753,"Binny Mill, Shanthi Nagar, Buckingham Carnatic Mills, Jamalia, Chennai, Tamil Nadu 600012, India",ChIJW5gQRMBlUjoRqQSZpsvVfZk,"Kallukadai Bus Stop, Binny Mill Church, Chennai"
Binny Mill Church,22,stop9,Villivakkam Kalpana Hotel,13.102766,80.208668,13.102823247036442,80.20868709345861,"Kalpana Hotel, Villivakkam, Chennai, Tamil Nadu 600049, India",ChIJq-p0ympkUjoRndlDnLKzPIk,"Villivakkam Kalpana Hotel, Binny Mill Church, Chennai"
Binny Mill Church,22,stop10,Nadhamuni Theatre,13.1032371,80.2022558,13.103238804531747,80.20214006913258,"4632+7WR, Madras Thiruvallur High Rd, Thiru Nagar, Villivakkam, Chennai, Tamil Nadu 600049, India",ChIJ0-t4w2xkUjoRJrDTghZf54g,"Nadhamuni Theatre, Binny Mill Church, Chennai"
Moolakadai,23,stop1,Erukkancheri ABR kalyana Mandapam,13.1277921,80.24390100000001,13.127745747968135,80.24388279770992,"15B, Grand Northern Trunk Rd, Erukkanchery, Nehru Nagar, Kodungaiyur, Chennai, Tamil Nadu 600118, India",ChIJgWJATQBlUjoR7aJ1yD722Gg,"Erukkancheri ABR kalyana Mandapam, Moolakadai, Chennai"
Moolakadai,23,stop2,Erukkancheri - Rajalakshmi Cars Showroom,13.1248237,80.2471242,13.124745213370263,80.24704914553254,"No. 173, Erukkenchery High Rd, Kumar Nagar, Moolakadai, Kodungaiyur, Chennai, Tamil Nadu 600118, India",ChIJw9HuGKdlUjoRaLJ_HjI8Gd8,"Erukkancheri - Rajalakshmi Cars Showroom, Moolakadai, Chennai"
Moolakadai,23,stop3,Moolakadai,13.1295676,80.2416298,13.129566521150474,80.2416465682684,"Moolakadai, Kodungaiyur, Chennai, Tamil Nadu, India",ChIJu6fj8gZlUjoRdvEHAg4L3EY,"Moolakadai, Moolakadai, Chennai"
Moolakadai,23,stop4,M1.Police Station,13.1313801,80.237884,13.131488300477073,80.23796639454571,"Madhavaram High Road, 46JQ+H52, Kanakan Chatram, Ponniammanmedu, Thiruvallur, Chennai, Tamil Nadu 600110, India",ChIJtUVfmt5kUjoREmVoz7DHd30,"M1.Police Station, Moolakadai, Chennai"
Moolakadai,23,stop5,Kanakan chatram (Shell Petrol Bunk),13.1295676,80.2416298,13.129566521150474,80.2416465682684,"Moolakadai, Kodungaiyur, Chennai, Tamil Nadu, India",ChIJu6fj8gZlUjoRdvEHAg4L3EY,"Kanakan chatram (Shell Petrol Bunk), Moolakadai, Chennai"
Moolakadai,23,stop6,Kalpana Lamps,13.1295676,80.2416298,13.129566521150474,80.2416465682684,"Moolakadai, Kodungaiyur, Chennai, Tamil Nadu, India",ChIJu6fj8gZlUjoRdvEHAg4L3EY,"Kalpana Lamps, Moolakadai, Chennai"
Moolakadai,23,stop7,Madavaram Andhra Bus Stand,13.1295676,80.2416298,13.129566521150474,80.2416465682684,"Moolakadai, Kodungaiyur, Chennai, Tamil Nadu, India",ChIJu6fj8gZlUjoRdvEHAg4L3EY,"Madavaram Andhra Bus Stand, Moolakadai, Chennai"
Moolakadai,23,stop8,Retteri RTO Office,13.1295676,80.2416298,13.129566521150474,80.2416465682684,"Moolakadai, Kodungaiyur, Chennai, Tamil Nadu, India",ChIJu6fj8gZlUjoRdvEHAg4L3EY,"Retteri RTO Office, Moolakadai, Chennai"
Korattur,24,stop1,Korattur Police Station,13.1072152,80.18674519999999,13.107226940626388,80.18664125900906,"454P+VMQ, E Ave Rd, TNHB Colony, TVS Industries, Korattur, Chennai, Tamil Nadu 600050, India",ChIJ3QCpAopjUjoRYfh3tl6pAyo,"Korattur Police Station, Korattur, Chennai"
Korattur,24,stop2,Bakthavatchlam School Signal,13.1090805,80.18297299999999,13.109105912441576,80.18246659561872,"BAKTHAVACHALAM VIDHYASHRAM SCHOOL, Venkatraman Nagar, Korattur, Chennai, Tamil Nadu 600050, India",ChIJ1c0HPIljUjoR2hWXua0mvfM,"Bakthavatchlam School Signal, Korattur, Chennai"
Korattur,24,stop3,Church,13.1220617,80.2110781,13.122003988173757,80.21107235381174,"C-38, Durga Colony, Kolathur, Chennai, Tamil Nadu 600099, India",ChIJVxKsHRhlUjoRKIyJ4W8Rxck,"Church, Korattur, Chennai"
MKB. Nagar,25,stop1,MKB Nagar,13.1231079,80.2614037,13.122903940859024,80.26139711626836,"MKB Nagar, Mahakavi Bharathi Nagar, Vyasarpadi, Chennai, Tamil Nadu 600039, India",ChIJgWz_N5xlUjoRzeZ5A5CKHSA,"MKB Nagar, MKB. Nagar, Chennai"
MKB. Nagar,25,stop2,KKD Nagar,13.1258413,80.262221,13.125962017816537,80.26222274904421,"Mahakavi Bharathi Nagar, Vyasarpadi, Chennai, Tamil Nadu, India",ChIJ62REgZtlUjoRx34_mPeiico,"KKD Nagar, MKB. Nagar, Chennai"
MKB. Nagar,25,stop3,MR Nagar,13.1231079,80.2614037,13.122903940859024,80.26139711626836,"MKB Nagar, Mahakavi Bharathi Nagar, Vyasarpadi, Chennai, Tamil Nadu 600039, India",ChIJgWz_N5xlUjoRzeZ5A5CKHSA,"MR Nagar, MKB. Nagar, Chennai"
MKB. Nagar,25,stop4,Pavithra Hospital,13.1261096,80.2491749,13.126107644307165,80.24918155796445,"Melpatti Ponnappa Street, Santhi Nagar, Vyasar Nagar Colony, Perambur, Chennai, Tamil Nadu 600118, India",ChIJL8IbUC17UjoRI4U2lrERWF0,"Pavithra Hospital, MKB. Nagar, Chennai"
Erukkanchery,26,stop1,Erukkanchery,13.1272359,80.2533608,13.12739293365577,80.25324680169341,"Erukkanchery, Thiruvalluvar Nagar, Kodungaiyur, Chennai, Tamil Nadu 600118, India",ChIJcw7engplUjoRG_aSF4F4ppg,"Erukkanchery, Erukkanchery, Chennai"
Erukkanchery,26,stop2,Madhavaram rountana,13.1272359,80.2533608,13.12739293365577,80.25324680169341,"Erukkanchery, Thiruvalluvar Nagar, Kodungaiyur, Chennai, Tamil Nadu 600118, India",ChIJcw7engplUjoRG_aSF4F4ppg,"Madhavaram rountana, Erukkanchery, Chennai"
Erukkanchery,26,stop3,Retteri RTO Office,13.1272359,80.2533608,13.12739293365577,80.25324680169341,"Erukkanchery, Thiruvalluvar Nagar, Kodungaiyur, Chennai, Tamil Nadu 600118, India",ChIJcw7engplUjoRG_aSF4F4ppg,"Retteri RTO Office, Erukkanchery, Chennai"
Erukkanchery,26,stop4,Korattur police station,13.1072152,80.18674519999999,13.107226940626388,80.18664125900906,"454P+VMQ, E Ave Rd, TNHB Colony, TVS Industries, Korattur, Chennai, Tamil Nadu 600050, India",ChIJ3QCpAopjUjoRYfh3tl6pAyo,"Korattur police station, Erukkanchery, Chennai"
Erukkanchery,26,stop5,Ambattur Telephone Exchange,13.1272359,80.2533608,13.12739293365577,80.25324680169341,"Erukkanchery, Thiruvalluvar Nagar, Kodungaiyur, Chennai, Tamil Nadu 600118, India",ChIJcw7engplUjoRG_aSF4F4ppg,"Ambattur Telephone Exchange, Erukkanchery, Chennai"
Kolathur,27,stop1,Vyasarpadi Fire Service,13.1169719,80.2498164,13.116905199999998,80.2499729,"198, MPM Street, Bakthavatsalam Colony, Vyasarpadi, Chennai, Tamil Nadu 600039, India",ChIJbXXKLgBlUjoRC07-tdBsBas,"Vyasarpadi Fire Service, Kolathur, Chennai"
Kolathur,27,stop2,BB Road Junction,13.1143847,80.25276459999999,13.114384868236122,80.25275884457224,"Melpatti Ponnappa St, Kakanji Colony, Perambur, Chennai, Tamil Nadu 600011, India",ChIJVefB_JJlUjoRKrC-EQW_r_I,"BB Road Junction, Kolathur, Chennai"
Kolathur,27,stop3,Lakshmi amman Koil,13.1224059,80.2424774,13.122405899999997,80.2424774,"Lakshmi Amman Koil St, Chennai, Tamil Nadu, India",ChIJHYWz6bllUjoR2RY2vAoVPC8,"Lakshmi amman Koil, Kolathur, Chennai"
Kolathur,27,stop4,Brindha Theatre,13.119024,80.242679,13.119031350023988,80.24263055941834,"Brindha Theatre, Madhavaram, Ramana Nagar, Perambur, Chennai, Tamil Nadu 600011, India",ChIJBaJ4Za9lUjoRij7FToqXYoo,"Brindha Theatre, Kolathur, Chennai"
Kolathur,27,stop5,Welding Shop,13.123915,80.222236,13.123916127822673,80.2222024968722,"Welding Shop, Kolathur, Chennai, Tamil Nadu 600099, India",ChIJu-mtl1dkUjoRv8ohfP7tlVk,"Welding Shop, Kolathur, Chennai"
Perambur,28,stop1,BP Road,13.1210302,80.2325781,13.121024160553715,80.2326156108958,"Perambur, Chennai, Tamil Nadu, India",ChIJm6CRQgVlUjoR00h7rxzlbyc,"BP Road, Perambur, Chennai"
Perambur,28,stop2,Perambur Bus Depot,13.1085964,80.24808999999999,13.108597347137358,80.24808164637422,"465X+C6P, Perambur High Rd, Chinnaiyan Colony, Perambur, Chennai, Tamil Nadu 600012, India",ChIJG9EfObllUjoRXximYOA8S7A,"Perambur Bus Depot, Perambur, Chennai"
Perambur,28,stop3,Perambur Rly Station,13.1077308,80.244435,13.108035426511572,80.2446354414483,"Perambur, 32, 42/71, MKN Rd, Bunder Garden, Guindy, Chennai, Tamil Nadu 600016, India",ChIJeTTp1rllUjoRBHen-F6J798,"Perambur Rly Station, Perambur, Chennai"
Perambur,28,stop4,Perumbur Church,13.1097155,80.2414135,13.109932653058772,80.24154370594673,"Perambur Church, Perambur, Chennai, Tamil Nadu 600011, India",ChIJgTJYzLBlUjoRFuDGXPEFvuE,"Perumbur Church, Perambur, Chennai"
Perambur,28,stop5,Ajantha Bakers,13.1210302,80.2325781,13.121024160553715,80.2326156108958,"Perambur, Chennai, Tamil Nadu, India",ChIJm6CRQgVlUjoR00h7rxzlbyc,"Ajantha Bakers, Perambur, Chennai"
Perambur,28,stop6,Venus Bus Stop,13.1122045,80.23464229999999,13.112203133147707,80.2346607271652,"1, Ballard St, Agaram, Perambur, Chennai, Tamil Nadu 600082, India",ChIJOd71VwBlUjoRplNP_hljn6I,"Venus Bus Stop, Perambur, Chennai"
Perambur,28,stop7,Lakshmi Amman Koil (kolathur),13.1161644,80.2427881,13.116013377852939,80.2427679803605,"468V+F47, Ramana Nagar, Perambur, Chennai, Tamil Nadu 600011, India",ChIJi6gPf3xlUjoR1nz4XiJRHd4,"Lakshmi Amman Koil (kolathur), Perambur, Chennai"
Perambur,28,stop8,BPCL Petrol Bunk,13.125114,80.295542,13.125107719936585,80.29564964848922,"No.91,S.n chetty street,fishing harbour, Kasimedu, Royapuram, Chennai, Tamil Nadu 600013, India",ChIJr-GmRIhvUjoRyzsAiPKEAKo,"BPCL Petrol Bunk, Perambur, Chennai"
Peravallur,29,stop1,Peravalur,13.1178796,80.2316085,13.117913780781889,80.23144438494855,"Peravallur, Perambur, Chennai, Tamil Nadu, India",ChIJoc6q1lJkUjoR6dz6U1PwMhk,"Peravalur, Peravallur, Chennai"
Peravallur,29,stop2,Jawahar Nagar Bus Stop,13.1178796,80.2316085,13.117913780781889,80.23144438494855,"Peravallur, Perambur, Chennai, Tamil Nadu, India",ChIJoc6q1lJkUjoR6dz6U1PwMhk,"Jawahar Nagar Bus Stop, Peravallur, Chennai"
Peravallur,29,stop3,Axis Bank,13.1168442,80.23020300000002,13.11690841568604,80.2302407177416,"No 167, Peravallur, Perambur, Chennai, Tamil Nadu 600081, India",ChIJWZ4o995kUjoR-CdgzeQKTbs,"Axis Bank, Peravallur, Chennai"
Peravallur,29,stop4,Agaram BPCL Bunk,13.1162012,80.23155000000001,13.116158877036561,80.23152076805229,"Agaram, Peravallur, Perambur, Chennai, Tamil Nadu, India",ChIJCezGt1JkUjoRH6wptpoCgLg,"Agaram BPCL Bunk, Peravallur, Chennai"
Peravallur,29,stop5,Thiruvalluvar Kalyanamandabam,13.1178796,80.2316085,13.117913780781889,80.23144438494855,"Peravallur, Perambur, Chennai, Tamil Nadu, India",ChIJoc6q1lJkUjoR6dz6U1PwMhk,"Thiruvalluvar Kalyanamandabam, Peravallur, Chennai"
Peravallur,29,stop6,Periyar Nagar Vegetable market,13.1178796,80.2316085,13.117913780781889,80.23144438494855,"Peravallur, Perambur, Chennai, Tamil Nadu, India",ChIJoc6q1lJkUjoR6dz6U1PwMhk,"Periyar Nagar Vegetable market, Peravallur, Chennai"
Kolathur (Don Bosco School),30,stop1,Kolathur (Don Bosco School),13.1189858,80.2072457,13.11881200311674,80.20725331304364,"Kolathur Main Rd, Srinivasa Nagar, Kolathur, Chennai, Tamil Nadu 600099, India",ChIJZ5yX4GBkUjoR7OgYaetxt_8,"Kolathur (Don Bosco School), Kolathur (Don Bosco School), Chennai"
Kolathur (Don Bosco School),30,stop2,Retteri Junction,13.1366463,80.2203699,13.136696750971982,80.22036970572917,"46PC+M45, Grand Northern Trunk Rd, Munusamy Nagar, Kolathur, Chennai, Tamil Nadu 600099, India",ChIJ20ymBKxlUjoRJw-4-gRFBTI,"Retteri Junction, Kolathur (Don Bosco School), Chennai"
Kolathur (Don Bosco School),30,stop3,Saravana Store (Padi),13.0704208,80.25506159999999,13.07029948115206,80.2549109085487,"3794+R3M, 13, CASA Major Rd, Sulaiman Zackria Avenue, Egmore, Chennai, Tamil Nadu 600008, India",ChIJlTt4Yg5mUjoRHZ1eoHXv1js,"Saravana Store (Padi), Kolathur (Don Bosco School), Chennai"
Kolathur (Don Bosco School),30,stop4,Korattur Signal,13.118676,80.1985605,13.118675864701984,80.1985607673893,"459X+FCF, Palla St, Sivakami Nagar, Thathan Kuppam, Villivakkam, Chennai, Tamil Nadu 600099, India",ChIJv2gOtOhlUjoRgMRC9QPC7Fg,"Korattur Signal, Kolathur (Don Bosco School), Chennai"
Kolathur (Don Bosco School),30,stop5,Britannia,13.0704208,80.25506159999999,13.07029948115206,80.2549109085487,"3794+R3M, 13, CASA Major Rd, Sulaiman Zackria Avenue, Egmore, Chennai, Tamil Nadu 600008, India",ChIJlTt4Yg5mUjoRHZ1eoHXv1js,"Britannia, Kolathur (Don Bosco School), Chennai"
TVK Nagar,31,stop1,TVK Idugadu,13.119937,80.232524,13.11995838790265,80.23240389012946,"Thiru.Vi.Ka. Nagar, Tiru Vi Ka Nagar, Perambur, Chennai, Tamil Nadu 600011, India",ChIJ0Q_OraxlUjoR93oBOxuD_uQ,"TVK Idugadu, TVK Nagar, Chennai"
TVK Nagar,31,stop2,TVK Bus stand,13.1198567,80.2325773,13.119816604498803,80.23275152939203,"15th Street, 511, SRP Koil St N, Tiru Vi Ka Nagar, Perambur, Chennai, Tamil Nadu 600082, India",ChIJgWSQfaZlUjoRhLEF_7Vo9zs,"TVK Bus stand, TVK Nagar, Chennai"
TVK Nagar,31,stop3,Senthil Nagar,13.119938,80.2342226,13.119869729968384,80.23420963904469,"Tiru Vi Ka Nagar, Perambur, Chennai, Tamil Nadu, India",ChIJpXjllaxlUjoR5-Vkb77WBa4,"Senthil Nagar, TVK Nagar, Chennai"
Poombukar Nagar,32,stop1,SBI-Bank,13.1211176,80.21342489999999,13.121010389512467,80.21342368019889,"Poompuhar Nagar, Kolathur, Chennai, Tamil Nadu 600099, India",ChIJ190xAFxkUjoR22lM8PzkEO0,"SBI-Bank, Poombukar Nagar, Chennai"
Poombukar Nagar,32,stop2,Poombukar Nagar Post Office,13.1211176,80.21342489999999,13.121010389512467,80.21342368019889,"Poompuhar Nagar, Kolathur, Chennai, Tamil Nadu 600099, India",ChIJ190xAFxkUjoR22lM8PzkEO0,"Poombukar Nagar Post Office, Poombukar Nagar, Chennai"
Poombukar Nagar,32,stop3,Grace Super Market,13.1211176,80.21342489999999,13.121010389512467,80.21342368019889,"Poompuhar Nagar, Kolathur, Chennai, Tamil Nadu 600099, India",ChIJ190xAFxkUjoR22lM8PzkEO0,"Grace Super Market, Poombukar Nagar, Chennai"
Poombukar Nagar,32,stop4,Temple School,13.1250701,80.2056971,13.125022905105833,80.2055152155843,"46G4+27G, Jawaharlal Nehru Salai, Selvi Nagar, Kolathur, Chennai, Tamil Nadu 600099, India",ChIJs0mdMfdlUjoRjNfce0G5pmA,"Temple School, Poombukar Nagar, Chennai"
Minjur,33,stop1,Rice Mill,13.2695711,80.2632328,13.269625677082809,80.26322793469457,"7797+R7H, SH 104, Minjur, Tamil Nadu 601203, India",ChIJTxsAL_d5UjoRyT0nKsmXHFc,"Rice Mill, Minjur, Chennai"
Minjur,33,stop2,Kattur Koot Road,12.9230284,80.1868088,12.9230284,80.1868088,"Koot Rd, United Colony, Medavakkam, Chennai, Tamil Nadu 600100, India",ChIJ_xM9MJ5eUjoRpB6afBZE1g4,"Kattur Koot Road, Minjur, Chennai"
Minjur,33,stop3,Hemachandra Nagar,13.2758784,80.2607651,13.275867750693218,80.26083487974195,"Hemachandra Nagar, Minjur, Tamil Nadu 601203, India",ChIJUzuGGe55UjoRiSRMOFlTPqM,"Hemachandra Nagar, Minjur, Chennai"
Minjur,33,stop4,Pachaiyamman Koil Archi,13.2721287,80.2580337,13.2721287,80.2580337,"Pachai Amman Koil Road, Tamil Nadu 601203, India",ChIJrSSRxvN5UjoR-ieQTwK9KlE,"Pachaiyamman Koil Archi, Minjur, Chennai"
Minjur,33,stop5,Valluvar Nagar,13.2641152,80.26614479999999,13.26427536961047,80.26568056771725,"7778+JFR, Minjur New Town Rd, Minjur, Tamil Nadu 601203, India",ChIJjzLGbAB7UjoRtDXZfiAGrIE,"Valluvar Nagar, Minjur, Chennai"
Minjur,33,stop6,Patamanthri,13.2582341,80.278071,13.258210307878265,80.27814632690577,"Pattamandhri, Nandiambakkam, Tamil Nadu, India",ChIJyyqmsalwUjoRyVlCu03iuyg,"Patamanthri, Minjur, Chennai"
Minjur,33,stop7,Manali New Town,13.193283,80.2707953,13.193340114269146,80.27079535233028,"Manali New Town, Manali, Chennai, Tamil Nadu 600103, India",ChIJT3_QMp16UjoRTbcpD24SAKI,"Manali New Town, Minjur, Chennai"
Minjur,33,stop8,Vichoor,13.2005898,80.2377078,13.2005898,80.2377078,"Vichoor, Tamil Nadu, India",ChIJlaPVBeZ6UjoRlnyOPt0q93I,"Vichoor, Minjur, Chennai"
Minjur,33,stop9,Andarkuppam Check Post,13.192054,80.2698765,13.192053281444444,80.26982390034766,"Andarkuppam Check Post, SH 56, Vaikkadu, Manali New Town, Manali, Chennai, Tamil Nadu 600103, India",ChIJybM8v6N6UjoRLfmD9EcFIro,"Andarkuppam Check Post, Minjur, Chennai"
Minjur,33,stop10,Manjampakkam Ring Road,13.1551411,80.2224191,13.155119057712865,80.22242042749932,"Manjampakkam, Tamil Nadu, India",ChIJyefHadtkUjoRWz_OJmy_V6E,"Manjampakkam Ring Road, Minjur, Chennai"
Veterinary college (Mathur),34,stop1,Manali Market,13.1719994,80.25662009999999,13.17221082895653,80.25663791667908,"Manali Market, 18/39, Chinnamattur Rd, Cpcl Nagar, Apollo Armstrong Nagar, Mathur, Chennai, Tamil Nadu 600068, India",ChIJFbvP2kplUjoRsx_-1dcIfZ0,"Manali Market, Veterinary college (Mathur), Chennai"
Veterinary college (Mathur),34,stop2,Shastri nagar,13.1648007,80.25234429999999,13.164605964202956,80.25265782272365,"Shastri Nagar, Manali, Chennai, Tamil Nadu 600051, India",ChIJG_U50TdlUjoRa2WRHWIq7Zg,"Shastri nagar, Veterinary college (Mathur), Chennai"
Veterinary college (Mathur),34,stop3,Mathur 3rd Main Road,13.1706366,80.2496846,13.1706366,80.2496846,"3rd Main Rd, Mathur, Tamil Nadu 600068, India",ChIJ7zj0kDRlUjoRCMmIx01JA3g,"Mathur 3rd Main Road, Veterinary college (Mathur), Chennai"
Veterinary college (Mathur),34,stop4,Mathur 1st Main Road,13.169072,80.2407609,13.169072000000002,80.2407609,"Mathur Second Main Rd, Mathur, Tamil Nadu 600068, India",ChIJGQEeWyxlUjoRIH3_Xska3Jw,"Mathur 1st Main Road, Veterinary college (Mathur), Chennai"
Veterinary college (Mathur),34,stop5,Veterinary college,13.158582,80.244041,13.158581879418334,80.24395854106027,"Veterinary College, MMC Aavin Quarters, Madhavaram Milk Colony, Chennai, Tamil Nadu 600051, India",ChIJd8d-2jplUjoRSc_N4PlsLDo,"Veterinary college, Veterinary college (Mathur), Chennai"
Veterinary college (Mathur),34,stop6,Arul Nagar,13.1463254,80.24432940000001,13.146454499999999,80.2442938,"Arul Nagar, Madhavaram Milk Colony, Chennai, Tamil Nadu 600051, India",ChIJx0BedRdlUjoRlvTN-O9NJyA,"Arul Nagar, Veterinary college (Mathur), Chennai"
Veterinary college (Mathur),34,stop7,Thapalpetti,13.1414156,80.23701080000001,13.14157754861601,80.23699793735759,"Thapalpetti, Palaniappa Nagar, Madhavaram, Chennai, Tamil Nadu 600060, India",ChIJgTEkiBxlUjoRlUG0H3ijyPU,"Thapalpetti, Veterinary college (Mathur), Chennai"
Veterinary college (Mathur),34,stop8,Madhavaram Old Bus stand,13.158582,80.244041,13.158581879418334,80.24395854106027,"Veterinary College, MMC Aavin Quarters, Madhavaram Milk Colony, Chennai, Tamil Nadu 600051, India",ChIJd8d-2jplUjoRSc_N4PlsLDo,"Madhavaram Old Bus stand, Veterinary college (Mathur), Chennai"
Veterinary college (Mathur),34,stop9,Madhavaram New Bus stand,13.152167,80.22819899999999,13.15215996767289,80.22817634310914,"Madhavaram New, Natesan Nagar, Madhavaram, Chennai, Tamil Nadu 600060, India",ChIJQ7_T9d5kUjoRneTCeC_aXbM,"Madhavaram New Bus stand, Veterinary college (Mathur), Chennai"
Ayappakkam,35,stop1,Dunlop,13.099284,80.1389475,13.09924488552495,80.13894199850755,"M 15-16, TN HOUSING BOARD, 5, Ayyappakkam Main Rd, TNHB Colony, Annanur, Ayappakkam, Chennai, Tamil Nadu 600058, India",ChIJX4TtjTViUjoRE6cYcMT7lTk,"Dunlop, Ayappakkam, Chennai"
Ayappakkam,35,stop2,Canara Bank,13.0983046,80.13665110000001,13.09828361275489,80.13664957624216,"Ayappakkam, Chennai, Tamil Nadu, India",ChIJk5prZTdiUjoR1fRCxHB3WDc,"Canara Bank, Ayappakkam, Chennai"
Ayappakkam,35,stop3,Cake World - Ambattur,13.1202673,80.1491746,13.120272552473152,80.14905318655612,"413, Madras Thiruvallur High Rd, Secretariat Colony, Vivek Nagar, O.T, Ambattur, Chennai, Tamil Nadu 600053, India",ChIJ0zFXnaljUjoR_MTFB6Ae5vo,"Cake World - Ambattur, Ayappakkam, Chennai"
Ayappakkam,35,stop4,Murugappa Polytechnic,13.1259402,80.1173524,13.125905387190844,80.11761440022184,"44G8+9WH, Sathyamurthy Nagar, Avadi, Chennai, Tamil Nadu 600062, India",ChIJ8dAEwYtiUjoRgILafb041kg,"Murugappa Polytechnic, Ayappakkam, Chennai"
Ayappakkam Water Tank,36,stop1,Ayappakkam Water Tank,13.0988981,80.1327388,13.098824899999999,80.1327383,"Ayapakkam, TNHB Colony, Annanur, Ayappakkam, Chennai, Tamil Nadu 600077, India",ChIJARuW7zdiUjoR-F7KUCAm29A,"Ayappakkam Water Tank, Ayappakkam Water Tank, Chennai"
Ayappakkam Water Tank,36,stop2,VGN Platina,13.0940883,80.1264583,13.09411277555113,80.12646383285663,"VGN PLATINA, Ambigai Nagar, MGR Nagar, Ayappakkam, Chennai, Tamil Nadu 600077, India",ChIJhTxbUDliUjoRBUaI6b5vazo,"VGN Platina, Ayappakkam Water Tank, Chennai"
Ayappakkam Water Tank,36,stop3,Aparna Nagar,13.1009021,80.1275052,13.1009021,80.1275052,"Aparna Nagar, Annanur, Ambattur, Chennai, Tamil Nadu 600077, India",ChIJiwINSz9iUjoRgpvBtVCbyag,"Aparna Nagar, Ayappakkam Water Tank, Chennai"
Ayappakkam Water Tank,36,stop4,Shivan Koil,13.1089715,80.1325809,13.1089715,80.1325809,"Sivan Koil St, TNHB Colony, Annanur, Ayappakkam, Chennai, Tamil Nadu 600077, India",ChIJJdXZaEViUjoRhOEXf4wf7gI,"Shivan Koil, Ayappakkam Water Tank, Chennai"
Ayappakkam Water Tank,36,stop5,Koladi HP Petrol Bunk,13.0839218,80.13029689999999,13.083849199999998,80.1301479,"Koladi, Thiruverkadu, Chennai, Tamil Nadu, India",ChIJ1UQ3zCViUjoRTcmSYOxr7oM,"Koladi HP Petrol Bunk, Ayappakkam Water Tank, Chennai"
Ayappakkam Water Tank,36,stop6,Thiruverkadu Bus Stand,13.0695939,80.1240011,13.069602248764742,80.12387749182273,"349F+RJJ, Koladi Rd, Munusamy Nagar, Parasakthi Nagar, Thiruverkadu, Tamil Nadu 600077, India",ChIJIzvS0uBhUjoRwkBFBBOzan0,"Thiruverkadu Bus Stand, Ayappakkam Water Tank, Chennai"
Ayappakkam Water Tank,36,stop7,Pallavan Nagar,13.0983046,80.13665110000001,13.09828361275489,80.13664957624216,"Ayappakkam, Chennai, Tamil Nadu, India",ChIJk5prZTdiUjoR1fRCxHB3WDc,"Pallavan Nagar, Ayappakkam Water Tank, Chennai"
Ayappakkam Water Tank,36,stop8,VGN Mahalakshmi Appartments,13.052201,80.17900949999999,13.052276385856372,80.1790150510348,"352H+VJJ, Anbu Nagar 1st St, Radha Avenue, Sri Ram Nagar, Valasaravakkam, Chennai, Tamil Nadu 600087, India",ChIJ_eySdrFhUjoRCvHcz1Lpn_c,"VGN Mahalakshmi Appartments, Ayappakkam Water Tank, Chennai"
Ayappakkam Water Tank,36,stop9,Velapanchavadi Kendra Vihar Appartment,13.0988981,80.1327388,13.098824899999999,80.1327383,"Ayapakkam, TNHB Colony, Annanur, Ayappakkam, Chennai, Tamil Nadu 600077, India",ChIJARuW7zdiUjoR-F7KUCAm29A,"Velapanchavadi Kendra Vihar Appartment, Ayappakkam Water Tank, Chennai"
Thirumullaivoyal,37,stop1,Thirumullaivoyal,13.1314871,80.1363142,13.131535695043686,80.13626538435423,"44JP+HGW, Ambedkar Nagar, Thirumullaivoyal, Chennai, Tamil Nadu 600062, India",ChIJU_TISABjUjoR1xQ3As-TRsw,"Thirumullaivoyal, Thirumullaivoyal, Chennai"
Thirumullaivoyal,37,stop2,Vaishnawi Nagar,13.1275387,80.1257603,13.127555157497204,80.12572976370998,"Vaishnavi Nagar, Cholambedu, Chennai, Tamil Nadu 600062, India",ChIJt6IeE_RiUjoRz7IuvVSKflU,"Vaishnawi Nagar, Thirumullaivoyal, Chennai"
Thirumullaivoyal,37,stop3,Outer Ring Road bye Pass - Chokanallur,13.0477221,80.0844198,13.047722099999998,80.08441979999999,"Chennai Outer Ring Rd, Tamil Nadu, India",EihDaGVubmFpIE91dGVyIFJpbmcgUmQsIFRhbWlsIE5hZHUsIEluZGlhIi4qLAoUChIJqSiOfH2KUjoRAv_w3eCeDUUSFAoSCT_JzvzlYlI6Eb0PE3HmvUD2,"Outer Ring Road bye Pass - Chokanallur, Thirumullaivoyal, Chennai"
Ambattur OT,38,stop1,Singapore shopping,13.1214371,80.148208,13.121336669290702,80.14826208355001,"125, Chennai - Thiruttani - Renigunta Hwy, Vivek Nagar, Ram Nagar, Ambattur, Chennai, Tamil Nadu 600053, India",ChIJGRFa86ljUjoR9824mBUJ25U,"Singapore shopping, Ambattur OT, Chennai"
Ambattur OT,38,stop2,Anaikattucherry,13.1198456,80.1501107,13.11981118279253,80.15010503018091,"Ambattur O.T., N Park St, Secretariat Colony, Venkatapuram, Ambattur, Chennai, Tamil Nadu 600053, India",ChIJDVvADaljUjoR3dhCm-DqU_g,"Anaikattucherry, Ambattur OT, Chennai"
Ambattur OT,38,stop3,Sitharkadu,13.1198456,80.1501107,13.11981118279253,80.15010503018091,"Ambattur O.T., N Park St, Secretariat Colony, Venkatapuram, Ambattur, Chennai, Tamil Nadu 600053, India",ChIJDVvADaljUjoR3dhCm-DqU_g,"Sitharkadu, Ambattur OT, Chennai"
Ayappakkam Church (water tank),39,stop1,Ayappakkam church (water tank),13.0942463,80.1243902,13.094244998050508,80.12436884334791,"34VF+MQR, MGR Nagar, Ayappakkam, Chennai, Tamil Nadu 600077, India",ChIJJ8yKDOtjUjoR0SrWGB8qnC8,"Ayappakkam church (water tank), Ayappakkam Church (water tank), Chennai"
Ayappakkam Church (water tank),39,stop2,Pillaiyar kovil,13.1294532,80.1714924,13.129453199999997,80.1714924,"Pillaiyar Koil St, Chennai, Tamil Nadu 600053, India",ChIJE7BS3AhjUjoRBbDzh6zQAQQ,"Pillaiyar kovil, Ayappakkam Church (water tank), Chennai"
Ayappakkam Church (water tank),39,stop3,ICMR,13.0983046,80.13665110000001,13.09828361275489,80.13664957624216,"Ayappakkam, Chennai, Tamil Nadu, India",ChIJk5prZTdiUjoR1fRCxHB3WDc,"ICMR, Ayappakkam Church (water tank), Chennai"
Ayappakkam Church (water tank),39,stop4,Selvi Mahal,13.104452,80.1326952,13.10452282979808,80.13265684497848,"6th Main Road,, Bus Stop, 60/1, TNHB Rd, Near Govt.High School, Rajammal nagar, TNHB Colony, Annanur, Ayappakkam, Chennai, Tamil Nadu 600077, India",ChIJS3uduUhiUjoRqBLg4zN8Tp8,"Selvi Mahal, Ayappakkam Church (water tank), Chennai"
Ayappakkam Church (water tank),39,stop5,Ration shop,13.0743246,80.1685465,13.0743246,80.1685465,"Ration Shop Rd, Nolambur, Ambattur Industrial Estate, Chennai, Tamil Nadu 600095, India",ChIJU5Ys8l5hUjoR7t7QJX1FJuA,"Ration shop, Ayappakkam Church (water tank), Chennai"
Ayappakkam Church (water tank),39,stop6,EB,13.0983046,80.13665110000001,13.09828361275489,80.13664957624216,"Ayappakkam, Chennai, Tamil Nadu, India",ChIJk5prZTdiUjoR1fRCxHB3WDc,"EB, Ayappakkam Church (water tank), Chennai"
Ponneri,40,stop1,Krishnapuram (Ponneri),13.3340027,80.1943795,13.333981775357287,80.19434261347158,"Ponneri, Tamil Nadu 601204, India",ChIJOzTvG7R4UjoRmjvwKBnqqQQ,"Krishnapuram (Ponneri), Ponneri, Chennai"
Ponneri,40,stop2,Andarkuppam,13.1944732,80.264191,13.194206897099122,80.26420611582968,"Andarkuppam, Manali New Town, Manali, Chennai, Tamil Nadu 600103, India",ChIJ05B9sb16UjoR3-VOjALuVaw,"Andarkuppam, Ponneri, Chennai"
Ponneri,40,stop3,Velammal School,13.078671,80.174767,13.078631430858051,80.174780817207,"Velammal School, Brindawan Colony, Mogappair, Chennai, Tamil Nadu 600037, India",ChIJJX35nuJjUjoR9A8m0r72wCM,"Velammal School, Ponneri, Chennai"
Ponneri,40,stop4,Thachoor Koot Road,13.296639,80.14760299999999,13.296646091349977,80.14766106387059,"Thachur Koot Road, SH 56, Thatchoor, Tamil Nadu 601101, India",ChIJ2QElnfl-UjoR0iZ49q5WxdQ,"Thachoor Koot Road, Ponneri, Chennai"
Ponneri,40,stop5,Panchati,13.3340027,80.1943795,13.333981775357287,80.19434261347158,"Ponneri, Tamil Nadu 601204, India",ChIJOzTvG7R4UjoRmjvwKBnqqQQ,"Panchati, Ponneri, Chennai"
Ponneri,40,stop6,Irulipattu,13.3340027,80.1943795,13.333981775357287,80.19434261347158,"Ponneri, Tamil Nadu 601204, India",ChIJOzTvG7R4UjoRmjvwKBnqqQQ,"Irulipattu, Ponneri, Chennai"
Ponneri,40,stop7,Janapachathiram Koot Road,12.9230284,80.1868088,12.9230284,80.1868088,"Koot Rd, United Colony, Medavakkam, Chennai, Tamil Nadu 600100, India",ChIJ_xM9MJ5eUjoRpB6afBZE1g4,"Janapachathiram Koot Road, Ponneri, Chennai"
Ponneri,40,stop8,Karanodai,13.2506321,80.16091039999999,13.250570883166064,80.16091341714933,"Karanodai, Tamil Nadu 600067, India",ChIJyTqWfiV8UjoRnx7Lf11X2NA,"Karanodai, Ponneri, Chennai"
Ponneri,40,stop9,Cholavaram,13.2359597,80.16345849999999,13.235992637896539,80.16348441661285,"Sholavaram, Tamil Nadu 600067, India",ChIJZbBh-Ut8UjoRjIAhRtOW-AE,"Cholavaram, Ponneri, Chennai"
Ponneri,40,stop10,Padiyanallur,13.1989003,80.1764778,13.19891106203103,80.1764783344484,"Padianallur, Tamil Nadu 600052, India",ChIJ56q6JZ98UjoR2jIvR6aOkgA,"Padiyanallur, Ponneri, Chennai"
Ponneri,40,stop11,MA Nagar,13.2002927,80.17425399999999,13.200301996827386,80.174201202176,"M.A.Nagar, Padianallur, Tamil Nadu 600052, India",ChIJcwjv5JB8UjoRUsh5J47ZQBY,"MA Nagar, Ponneri, Chennai"
Ponneri,40,stop12,Redhills Bye Pass,13.3340027,80.1943795,13.333981775357287,80.19434261347158,"Ponneri, Tamil Nadu 601204, India",ChIJOzTvG7R4UjoRmjvwKBnqqQQ,"Redhills Bye Pass, Ponneri, Chennai"
Ponneri,40,stop13,Redhills Market,13.1888526,80.1883347,13.188767627616942,80.18823419918178,"30/12, Devanbu Street, Red Hills, Chennai, Tamil Nadu 600052, India",ChIJNUewaV97UjoRbfs8dGKJVNo,"Redhills Market, Ponneri, Chennai"
Ponneri,40,stop14,Redhills Bus Stand,13.1864645,80.1998776,13.18648608926704,80.19988300429169,"Red Hills, Chennai, Tamil Nadu, India",ChIJMYANK6B8UjoRDWonhFKPvTE,"Redhills Bus Stand, Ponneri, Chennai"
Ponneri,40,stop15,Redhills Koot Road,13.1864645,80.1998776,13.18648608926704,80.19988300429169,"Red Hills, Chennai, Tamil Nadu, India",ChIJMYANK6B8UjoRDWonhFKPvTE,"Redhills Koot Road, Ponneri, Chennai"
Kallikuppam,41,stop1,Surapet,13.136693,80.169371,13.136534999999999,80.169353,"Kallikuppam, Ambattur, Chennai, Tamil Nadu 600053, India",ChIJTz182W1jUjoR9LaBb1jqulQ,"Surapet, Kallikuppam, Chennai"
Kallikuppam,41,stop2,Kallikuppam Arch,13.1322915,80.16946089999999,13.132289153468387,80.16948495165892,"234, Ambattur Red Hills Rd, Kallikuppam, Ambattur, Chennai, Tamil Nadu 600053, India",ChIJA25vAqVjUjoRmL_miTbuQQc,"Kallikuppam Arch, Kallikuppam, Chennai"
Kallikuppam,41,stop3,Wireless,13.1320065,80.165272,13.131971724142355,80.16527394982378,"Wireless, Kallikuppam, Chennai, Tamil Nadu 600053, India",ChIJ5yo-K3NjUjoRgAsSIppRvtQ,"Wireless, Kallikuppam, Chennai"
Kallikuppam,41,stop4,Oragadam,13.136693,80.169371,13.136534999999999,80.169353,"Kallikuppam, Ambattur, Chennai, Tamil Nadu 600053, India",ChIJTz182W1jUjoR9LaBb1jqulQ,"Oragadam, Kallikuppam, Chennai"
Kallikuppam,41,stop5,P.T.R.Kalyanamanadapam,13.136693,80.169371,13.136534999999999,80.169353,"Kallikuppam, Ambattur, Chennai, Tamil Nadu 600053, India",ChIJTz182W1jUjoR9LaBb1jqulQ,"P.T.R.Kalyanamanadapam, Kallikuppam, Chennai"
Kallikuppam,41,stop6,Ajay Stadiuem,13.1330554,80.1024462,13.1327638,80.1021873,"44M2+6XG, Avadi, Tamil Nadu 600054, India",ChIJDaXcxn9iUjoRymadxobadq0,"Ajay Stadiuem, Kallikuppam, Chennai"
RedHills Bypass,42,stop1,Sothupakkam Signal,13.199252,80.1910347,13.199252,80.1910347,"Sothupakkam Rd, Red Hills, Chennai, Tamil Nadu, India",EjVTb3RodXBha2thbSBSZCwgUmVkIEhpbGxzLCBDaGVubmFpLCBUYW1pbCBOYWR1LCBJbmRpYSIuKiwKFAoSCcXzeEuCe1I6ERfmsgeH3T5_EhQKEgkxgA0roHxSOhENaieEUo-9MQ,"Sothupakkam Signal, RedHills Bypass, Chennai"
RedHills Bypass,42,stop2,SSR Palace,13.1918125,80.1894375,13.191741987661425,80.18937526144893,"GNT Rd, BYE PASS, Red Hills, Chennai, Padianallur, Tamil Nadu 600052, India",ChIJxTNLCAB7UjoRQygQaV3g0k8,"SSR Palace, RedHills Bypass, Chennai"
RedHills Bypass,42,stop3,Nel arisi kalyana mandapam (Signal),13.1842541,80.1924478,13.184064,80.1923224,"55MR+PX4, GNT Rd, Red Hills, Chennai, Vedakarai, Tamil Nadu 600052, India",ChIJpwA9Y6B8UjoRzKFl4KxUkyM,"Nel arisi kalyana mandapam (Signal), RedHills Bypass, Chennai"
RedHills Bypass,42,stop4,Redhills Market,13.1888526,80.1883347,13.188767627616942,80.18823419918178,"30/12, Devanbu Street, Red Hills, Chennai, Tamil Nadu 600052, India",ChIJNUewaV97UjoRbfs8dGKJVNo,"Redhills Market, RedHills Bypass, Chennai"
RedHills Bypass,42,stop5,Redhills Bus Stand,13.1949191,80.1690153,13.19491906716468,80.16901529358671,"Redhills - Thiruvallur High Rd, Red Hills, Chennai, Tamil Nadu, India",EkVSZWRoaWxscyAtIFRoaXJ1dmFsbHVyIEhpZ2ggUmQsIFJlZCBIaWxscywgQ2hlbm5haSwgVGFtaWwgTmFkdSwgSW5kaWEiLiosChQKEgmR2no6mXxSOhE9qwRiuXgvoBIUChIJMYANK6B8UjoRDWonhFKPvTE,"Redhills Bus Stand, RedHills Bypass, Chennai"
RedHills Bypass,42,stop6,Alamaram,13.1942649,80.1743861,13.194295034457298,80.17437059318056,"t.h.road,alamaram, 52, Red Hills, Chennai, Padianallur, Tamil Nadu 600052, India",ChIJD90mupd8UjoR6yMgoNbVeGQ,"Alamaram, RedHills Bypass, Chennai"
RedHills Bypass,42,stop7,Gandhi Nagar,13.1952186,80.1679597,13.195218600000002,80.1679597,"Redhills - Thiruvallur High Rd, Chennai, Tamil Nadu, India",EjpSZWRoaWxscyAtIFRoaXJ1dmFsbHVyIEhpZ2ggUmQsIENoZW5uYWksIFRhbWlsIE5hZHUsIEluZGlhIi4qLAoUChIJkdp6Opl8UjoRPasEYrl4L6ASFAoSCWEzfU_qZVI6ETPUY2gLp2Fu,"Gandhi Nagar, RedHills Bypass, Chennai"
RedHills Bypass,42,stop8,Petrol Bunk (Pammathukulam),13.1657007,80.1456496,13.16618517975584,80.14561863533464,"Pammathukulam, Tamil Nadu, India",ChIJadftaipjUjoR1vi3UvpYpXo,"Petrol Bunk (Pammathukulam), RedHills Bypass, Chennai"
RedHills Bypass,42,stop9,Outer ring road Bridge,13.1964301,80.1552277,13.196430099999999,80.1552277,"Chennai Outer Ring Rd, Red Hills, Chennai, Tamil Nadu, India",EjxDaGVubmFpIE91dGVyIFJpbmcgUmQsIFJlZCBIaWxscywgQ2hlbm5haSwgVGFtaWwgTmFkdSwgSW5kaWEiLiosChQKEgmpKI58fYpSOhEC__Dd4J4NRRIUChIJMYANK6B8UjoRDWonhFKPvTE,"Outer ring road Bridge, RedHills Bypass, Chennai"
RedHills Bypass,42,stop10,Perumal Adipatham,13.1962992,80.1548567,13.196308700000001,80.1547889,"Perumal adi Padham, service road, minjur, 55W3+GW9, highway, Gandhinagar, Red Hills, Chennai, Tamil Nadu 600052, India",ChIJIQhlkld9UjoRJfEefneptJQ,"Perumal Adipatham, RedHills Bypass, Chennai"
RedHills Bypass,42,stop11,Saint Michaels Polytechnic,13.1036087,80.2007502,13.103619354690125,80.20085964123368,"Administrative Office, Jeayam Sakthi Complex, Sidco Industrial Estate, Villivakkam, Chennai, Tamil Nadu 600049, India",ChIJc9TrsQpmUjoRldby4F7bbvw,"Saint Michaels Polytechnic, RedHills Bypass, Chennai"
Puzhal Byepass,43,stop1,Kavankarai,13.1705476,80.1954051,13.1706293,80.1954343,"Kavankarai, Puzhal, Chennai, Tamil Nadu 600066, India",ChIJDRsiUbNkUjoR7w3RkS5M9zo,"Kavankarai, Puzhal Byepass, Chennai"
Puzhal Byepass,43,stop2,Puzhal Jail,13.164878,80.202483,13.164858350959161,80.20240541839718,"Puzhal Jail, Service Rd, St Anthony Nagar, Mahalakshmi Nagar, Puzhal, Chennai, Tamil Nadu 600066, India",ChIJqUs1arFkUjoRnNQYGrxYB2A,"Puzhal Jail, Puzhal Byepass, Chennai"
Puzhal Byepass,43,stop3,Puzhual Camp,13.1584711,80.2036881,13.158477205522274,80.20370195911941,"Puzhal, Chennai, Tamil Nadu, India",ChIJf8hRQKxkUjoR97GnDYsuedc,"Puzhual Camp, Puzhal Byepass, Chennai"
Puzhal Byepass,43,stop4,Shanmugapuram,13.1430447,80.1834789,13.143056616837274,80.18334540381608,"Shanmugapuram, Bharathidasan Nagar, Surapet, Mottur, Tamil Nadu 600066, India",ChIJ5-f8TGZjUjoRdSvC__-5dxY,"Shanmugapuram, Puzhal Byepass, Chennai"
Puzhal Byepass,43,stop5,Pudur,13.1584711,80.2036881,13.158477205522274,80.20370195911941,"Puzhal, Chennai, Tamil Nadu, India",ChIJf8hRQKxkUjoR97GnDYsuedc,"Pudur, Puzhal Byepass, Chennai"
Puzhal,44,stop1,Umayal Achi nursing college,13.1578216,80.1978804,13.157651738483073,80.19785238087849,"OMAYAL ACHI COLLEGE OF NURSING, Puzhal, Tiruvallur, Chennai, Tamil Nadu 600066, India",ChIJfdoMbKVkUjoRKkxHbbFQ6G4,"Umayal Achi nursing college, Puzhal, Chennai"
Puzhal,44,stop2,Velammal college,13.150866,80.191431,13.150814419112134,80.19146906734952,"Velammal College, Puzhal, Chennai, Tamil Nadu 600066, India",ChIJyzawDaFkUjoRB67o6In3dEU,"Velammal college, Puzhal, Chennai"
Puzhal,44,stop3,Singapore shopping,13.1163694,80.2313473,13.11630269993639,80.23130123114443,"147, Paper Mills Road, Shakthivel Nagar, Perambur, Chennai, Tamil Nadu 600011, India",ChIJq_vjtlJkUjoRGL1ga9s6uiM,"Singapore shopping, Puzhal, Chennai"
Puzhal,44,stop4,Stedford Hospital,13.1255449,80.1440334,13.125760176974161,80.14401674392282,"7, Madras Thiruvallur High Rd, Shobha Nagar, OT, Ambattur, Chennai, Tamil Nadu 600053, India",ChIJo4m4NgBjUjoRbopglRlWAAs,"Stedford Hospital, Puzhal, Chennai"
Puzhal,44,stop5,Moorthy Nagar,13.1459444,80.2063355,13.1459444,80.2063355,"Moorthy Nagar, Madhavaram, Chennai, Tamil Nadu, India",ChIJbe4gTJRkUjoRPSWTnYtolLI,"Moorthy Nagar, Puzhal, Chennai"
Oragadam (Ambattur),45,stop1,Oragadam - PTR Kalyana Mandapam,13.1245553,80.15219189999999,13.124560684174758,80.15210125335136,"Madras Thiruvallur High Road,MTH Road,मद्रास थिरूवल्लूर हाई मार्ग, 62, Surapet Main Rd, Vijayalakshmi Puram, Ambattur, Chennai, Tamil Nadu 600053, India",ChIJ0VH4lgdjUjoR6lEfXSk2v0s,"Oragadam - PTR Kalyana Mandapam, Oragadam (Ambattur), Chennai"
Oragadam (Ambattur),45,stop2,Stedford,13.1243644,80.1440174,13.124299126675076,80.14397567100377,"Stedford Hospital, NH 716, Lenin Nagar, Oragadam, Chennai, Tamil Nadu 600109, India",ChIJmYbfPABjUjoRrf-T39amyPE,"Stedford, Oragadam (Ambattur), Chennai"
Oragadam (Ambattur),45,stop3,Saraswathi Nagar,13.1350516,80.1432237,13.134967325185986,80.14320625107196,"Saraswati Nagar, Thirumullaivoyal, Chennai, Tamil Nadu 600062, India",ChIJVxoHNv1iUjoReKzr5xCtakA,"Saraswathi Nagar, Oragadam (Ambattur), Chennai"
Oragadam (Ambattur),45,stop4,Avadi Check post,13.119296,80.09422699999999,13.11935228795249,80.09422035397361,"Avadi Check Post, New Military Rd, Kasturba Nagar, Avadi, Tamil Nadu 600054, India",ChIJHRx-49SJUjoRWOLnTjHUTiA,"Avadi Check post, Oragadam (Ambattur), Chennai"
Oragadam (Ambattur),45,stop5,Paruthipattu,13.0947825,80.1254469,13.094789999424613,80.12543190137046,"533, SECURITY ROOM, 3g, Tiruverkadu Rd, near VGN PLATINA, Paruthippattu, Aparna Nagar, MGR Nagar, Ayappakkam, Chennai, Tamil Nadu 600077, India",ChIJMZJAbT1jUjoRbZnJy3lgh1s,"Paruthipattu, Oragadam (Ambattur), Chennai"
Uthukottai,46,stop1,Uthukottai Bus Stand,13.0843007,80.2704622,13.0843007,80.2704622,"Chennai, Tamil Nadu, India",ChIJYTN9T-plUjoRM9RjaAunYW4,"Uthukottai Bus Stand, Uthukottai, Chennai"
Uthukottai,46,stop2,Peruncheri,13.0843007,80.2704622,13.0843007,80.2704622,"Chennai, Tamil Nadu, India",ChIJYTN9T-plUjoRM9RjaAunYW4,"Peruncheri, Uthukottai, Chennai"
Uthukottai,46,stop3,Seethancheri,13.2789188,79.8891817,13.278845300381645,79.88917588965667,"Seethanjeri, Tamil Nadu 602026, India",ChIJH6BC0e2cUjoRrvgH1vUoPPk,"Seethancheri, Uthukottai, Chennai"
Uthukottai,46,stop4,Poondi Koot Road,12.9230284,80.1868088,12.9230284,80.1868088,"Koot Rd, United Colony, Medavakkam, Chennai, Tamil Nadu 600100, India",ChIJ_xM9MJ5eUjoRpB6afBZE1g4,"Poondi Koot Road, Uthukottai, Chennai"
Uthukottai,46,stop5,Thiruvallur - Meera Theatre,13.0843007,80.2704622,13.0843007,80.2704622,"Chennai, Tamil Nadu, India",ChIJYTN9T-plUjoRM9RjaAunYW4,"Thiruvallur - Meera Theatre, Uthukottai, Chennai"
Uthukottai,46,stop6,Thiruvallur GRT,13.0843007,80.2704622,13.0843007,80.2704622,"Chennai, Tamil Nadu, India",ChIJYTN9T-plUjoRM9RjaAunYW4,"Thiruvallur GRT, Uthukottai, Chennai"
Uthukottai,46,stop7,College campus,13.0843007,80.2704622,13.0843007,80.2704622,"Chennai, Tamil Nadu, India",ChIJYTN9T-plUjoRM9RjaAunYW4,"College campus, Uthukottai, Chennai"
Kakkalur,47,stop1,Kakkalur Bus stop,13.0843007,80.2704622,13.0843007,80.2704622,"Chennai, Tamil Nadu, India",ChIJYTN9T-plUjoRM9RjaAunYW4,"Kakkalur Bus stop, Kakkalur, Chennai"
Kakkalur,47,stop2,Manavalanagar Railway Station,13.0843007,80.2704622,13.0843007,80.2704622,"Chennai, Tamil Nadu, India",ChIJYTN9T-plUjoRM9RjaAunYW4,"Manavalanagar Railway Station, Kakkalur, Chennai"
Kakkalur,47,stop3,NDP Mahal,13.0843007,80.2704622,13.0843007,80.2704622,"Chennai, Tamil Nadu, India",ChIJYTN9T-plUjoRM9RjaAunYW4,"NDP Mahal, Kakkalur, Chennai"
Kakkalur,47,stop4,Ondikuppam (Sangeetha Hotel),13.1266657,79.91882369999999,13.126542529597348,79.91881953718705,"Kakkalur, Tamil Nadu, India",ChIJRdhsyyeQUjoRc1rf_Ts3YbM,"Ondikuppam (Sangeetha Hotel), Kakkalur, Chennai"
Kakkalur,47,stop5,Putlur Bus Stop,13.1266657,79.91882369999999,13.126542529597348,79.91881953718705,"Kakkalur, Tamil Nadu, India",ChIJRdhsyyeQUjoRc1rf_Ts3YbM,"Putlur Bus Stop, Kakkalur, Chennai"
Kakkalur,47,stop6,Aranvoyal Bus Stop,13.0843007,80.2704622,13.0843007,80.2704622,"Chennai, Tamil Nadu, India",ChIJYTN9T-plUjoRM9RjaAunYW4,"Aranvoyal Bus Stop, Kakkalur, Chennai"
Kakkalur,47,stop7,Thirumazhisai bus stand,13.055494,80.056709,13.055478182671543,80.05670142991974,"Thirumazhisai Bus Stand, Chennai Tiruvallur High Rd, Ramachandra Nagar, Thirumazhisai, Tamil Nadu 600124, India",ChIJifz_XTSKUjoR86jQmMDiRXU,"Thirumazhisai bus stand, Kakkalur, Chennai"
Thiruvallur,48,stop1,Vasantha Bhavan Hotel,12.9196323,80.2512574,12.919665732730952,80.25116111131038,"102, Cholamandal Artists Village, Injambakkam, Chennai, Tamil Nadu 600115, India",ChIJzYu8vJpdUjoRZdYWyjvVmJc,"Vasantha Bhavan Hotel, Thiruvallur, Chennai"
Thiruvallur,48,stop2,State Bank of India,13.0843007,80.2704622,13.0843007,80.2704622,"Chennai, Tamil Nadu, India",ChIJYTN9T-plUjoRM9RjaAunYW4,"State Bank of India, Thiruvallur, Chennai"
Thiruvallur,48,stop3,Oil Mill,12.9241878,80.1049784,12.924187800000002,80.1049784,"Oil Mill St, Ramanatha Nagar, Tambaram, Chennai, Tamil Nadu 600045, India",ChIJp7EzZmRfUjoRlyJkJmdO-Gc,"Oil Mill, Thiruvallur, Chennai"
Thiruvallur,48,stop4,Caterpillar,13.0843007,80.2704622,13.0843007,80.2704622,"Chennai, Tamil Nadu, India",ChIJYTN9T-plUjoRM9RjaAunYW4,"Caterpillar, Thiruvallur, Chennai"
Thiruvallur,48,stop5,Melnallathur,13.0843007,80.2704622,13.0843007,80.2704622,"Chennai, Tamil Nadu, India",ChIJYTN9T-plUjoRM9RjaAunYW4,"Melnallathur, Thiruvallur, Chennai"
Thiruvallur,48,stop6,TCL,13.0843007,80.2704622,13.0843007,80.2704622,"Chennai, Tamil Nadu, India",ChIJYTN9T-plUjoRM9RjaAunYW4,"TCL, Thiruvallur, Chennai"
Thiruvallur,48,stop7,Athikulam,13.0843007,80.2704622,13.0843007,80.2704622,"Chennai, Tamil Nadu, India",ChIJYTN9T-plUjoRM9RjaAunYW4,"Athikulam, Thiruvallur, Chennai"
Veppampattu,49,stop1,Veppampattu Tea Kadai,13.1236559,79.9977029,13.1232191666212,79.99763934259099,"Veppampattu, Veppambaattu, Tamil Nadu 602024, India",ChIJmbW5Wi-PUjoRLXjdLc8jcpY,"Veppampattu Tea Kadai, Veppampattu, Chennai"
Veppampattu,49,stop2,Kandankollai,13.12705,79.991169,13.12702382815848,79.99116618166032,"Kandhan Kollai, Veppambaattu, Tamil Nadu 602024, India",ChIJpX_yQiOPUjoRL6zTILgAY88,"Kandankollai, Veppampattu, Chennai"
Veppampattu,49,stop3,Chevappettai,13.1291081,80.0076424,13.129110473988174,80.00765794784165,"Veppambaattu, Tamil Nadu 602024, India",ChIJFWHH8yaPUjoRpaA8SOp0D2Q,"Chevappettai, Veppampattu, Chennai"
Veppampattu,49,stop4,Tholuvur,13.1322956,79.9587511,13.132258726950218,79.95872293602122,"Thozuvur, Thozhur, Tamil Nadu 602025, India",ChIJuapsuqaPUjoRbU-ua4ggLsQ,"Tholuvur, Veppampattu, Chennai"
Veppampattu,49,stop5,Thaneerkulam,13.1424817,79.9514464,13.142439322953459,79.95143832000865,"Thaneerkulam, Tamil Nadu, India",ChIJF1VK6MCPUjoRAyh6-M30bVI,"Thaneerkulam, Veppampattu, Chennai"
Veppampattu,49,stop6,Thiruvalur GRT,13.1236581,79.91159379999999,13.123635317790598,79.91153403282959,"74, JN Rd, near Oil Mill Bus Stop, Kakkalur, Tiruvallur, Tamil Nadu 602001, India",ChIJY0GTEi-QUjoRgstmhqaO4QI,"Thiruvalur GRT, Veppampattu, Chennai"
Thirunindravur,50,stop1,Veppampattu Rly Station,13.1181068,80.033613,13.11812857724954,80.03361672215256,"Thiruninravur, Tamil Nadu 602024, India",ChIJ7V3DGd6IUjoR73wEob55FNo,"Veppampattu Rly Station, Thirunindravur, Chennai"
Thirunindravur,50,stop2,Veppampattu Rly 2nd Gate,13.1181068,80.033613,13.11812857724954,80.03361672215256,"Thiruninravur, Tamil Nadu 602024, India",ChIJ7V3DGd6IUjoR73wEob55FNo,"Veppampattu Rly 2nd Gate, Thirunindravur, Chennai"
Thirunindravur,50,stop3,Thirunindravur- Murugan Koil,13.1175033,80.0278479,13.1175033,80.0278479,"Murugan Kovil St, Thiruninravur, Tamil Nadu 602024, India",ChIJyY0q8yCJUjoRqUVxzRJTXc8,"Thirunindravur- Murugan Koil, Thirunindravur, Chennai"
Thirunindravur,50,stop4,Thirunindravur,13.1181068,80.033613,13.11812857724954,80.03361672215256,"Thiruninravur, Tamil Nadu 602024, India",ChIJ7V3DGd6IUjoR73wEob55FNo,"Thirunindravur, Thirunindravur, Chennai"
Thirunindravur,50,stop5,Nadukuthagai,13.1326404,80.0363631,13.132659260072007,80.03636640913354,"Nadukuthagai, Tamil Nadu 602024, India",ChIJn0KK4x6JUjoRDxrmR_HgedE,"Nadukuthagai, Thirunindravur, Chennai"
Thirunindravur,50,stop6,Jaya college,13.1233678,80.0449983,13.12337940064601,80.04499858271545,"Chennai - Tiruvallur High Rd, Thiruninravur, Chennai, Tamil Nadu 602024, India",ChIJY0rWUPyIUjoRNksH59x6guw,"Jaya college, Thirunindravur, Chennai"
Thirunindravur,50,stop7,Nemelichery rountana,13.1214881,80.0450706,13.121179694903715,80.04500737592247,"Nemilichery, Railway Station Road, Srinath Nagar, Nemilicheri, Tamil Nadu 602024, India",ChIJ2X3Vqf2IUjoRvNJ5AUyG1wc,"Nemelichery rountana, Thirunindravur, Chennai"
Avadi,51,stop1,Avadi Ramarathinam,13.1067448,80.0969511,13.106906142681797,80.09699343476025,"Avadi, Tamil Nadu, India",ChIJJW3vm9GJUjoRZI6AFrrodeU,"Avadi Ramarathinam, Avadi, Chennai"
Avadi,51,stop2,Ponnu Supermarket,13.1159932,80.1025032,13.116200970406895,80.10254171783225,"C-3 & C-4, New Military Rd, Kannigapuram, TNHB Mig V Block, Chennai, Avadi, Tamil Nadu 600054, India",ChIJt2N5tn5iUjoRd2aWTtfnHs8,"Ponnu Supermarket, Avadi, Chennai"
Ambattur Stedford Hospital,52,stop1,JB Estate,13.1255449,80.1440334,13.125760176974161,80.14401674392282,"7, Madras Thiruvallur High Rd, Shobha Nagar, OT, Ambattur, Chennai, Tamil Nadu 600053, India",ChIJo4m4NgBjUjoRbopglRlWAAs,"JB Estate, Ambattur Stedford Hospital, Chennai"
Ambattur Stedford Hospital,52,stop2,Vasantham Nagar,13.1255449,80.1440334,13.125760176974161,80.14401674392282,"7, Madras Thiruvallur High Rd, Shobha Nagar, OT, Ambattur, Chennai, Tamil Nadu 600053, India",ChIJo4m4NgBjUjoRbopglRlWAAs,"Vasantham Nagar, Ambattur Stedford Hospital, Chennai"
Ambattur Stedford Hospital,52,stop3,Paruthipattu police Booth,13.1255449,80.1440334,13.125760176974161,80.14401674392282,"7, Madras Thiruvallur High Rd, Shobha Nagar, OT, Ambattur, Chennai, Tamil Nadu 600053, India",ChIJo4m4NgBjUjoRbopglRlWAAs,"Paruthipattu police Booth, Ambattur Stedford Hospital, Chennai"
Ambattur Stedford Hospital,52,stop4,Kaduvetti,13.1255449,80.1440334,13.125760176974161,80.14401674392282,"7, Madras Thiruvallur High Rd, Shobha Nagar, OT, Ambattur, Chennai, Tamil Nadu 600053, India",ChIJo4m4NgBjUjoRbopglRlWAAs,"Kaduvetti, Ambattur Stedford Hospital, Chennai"
Ambattur Stedford Hospital,52,stop5,Bharat bunk,13.1255449,80.1440334,13.125760176974161,80.14401674392282,"7, Madras Thiruvallur High Rd, Shobha Nagar, OT, Ambattur, Chennai, Tamil Nadu 600053, India",ChIJo4m4NgBjUjoRbopglRlWAAs,"Bharat bunk, Ambattur Stedford Hospital, Chennai"
Avadi (GRT),53,stop1,Avadi Pillyarkoil,13.119598,80.09330220000001,13.1196747,80.0930791,"No. 122/2A, Chennai - Tiruvallur High Rd, near State Bank of India, Gandhi Nagar, Avadi, Chennai, Tamil Nadu 600054, India",ChIJKSKuotSJUjoR97QJbzAM2WA,"Avadi Pillyarkoil, Avadi (GRT), Chennai"
Avadi (GRT),53,stop2,Kavarapalayam,13.121295,80.08542,13.121364491753944,80.08543466929899,"Kavarapalayam, Avadi, Tamil Nadu, India",ChIJpUCJyDKIUjoRTUXCy9hbhgk,"Kavarapalayam, Avadi (GRT), Chennai"
Avadi (GRT),53,stop3,Sindhu Nagar,13.1201612,80.0839101,13.120160272468999,80.08391559108765,"Sindhu Nagar, Pattabiram, Tamil Nadu, India",ChIJZ31qysyJUjoRMhPjnLCxMm0,"Sindhu Nagar, Avadi (GRT), Chennai"
Avadi (GRT),53,stop4,Sekkadu,13.1031993,80.094696,13.103167349318202,80.09479609214935,"Sekkadu, Avadi, Tamil Nadu 600071, India",ChIJS3Dww96JUjoR8DuSQ_gJXEU,"Sekkadu, Avadi (GRT), Chennai"
Avadi (GRT),53,stop5,Hindu College,13.1129723,80.0784068,13.112972989136873,80.0784327072022,"Hindu college, No.23, Durai kannu nagar, sekkadu, Avadi, Tamil Nadu 600071, India",ChIJk2E8ocmJUjoR9jO7aoJSCFM,"Hindu College, Avadi (GRT), Chennai"
Avadi (GRT),53,stop6,Pattabiram Bridge,13.1228447,80.06006119999999,13.122775735907439,80.06004853506855,"43F6+42M Pattabiram Bridge, Pattabiram, Tamil Nadu 600072, India",ChIJb1BHkfiIUjoR1Op0UOuuxXg,"Pattabiram Bridge, Avadi (GRT), Chennai"
Avadi Market,54,stop1,Govarthnagiri,13.1067448,80.0969511,13.106906142681797,80.09699343476025,"Avadi, Tamil Nadu, India",ChIJJW3vm9GJUjoRZI6AFrrodeU,"Govarthnagiri, Avadi Market, Chennai"
Avadi Market,54,stop2,Ayankulam,13.1067448,80.0969511,13.106906142681797,80.09699343476025,"Avadi, Tamil Nadu, India",ChIJJW3vm9GJUjoRZI6AFrrodeU,"Ayankulam, Avadi Market, Chennai"
Avadi Market,54,stop3,Paruthipatu,13.0914994,80.1051684,13.091834025397995,80.1051834266698,"Paruthippattu, Avadi, Tamil Nadu 600071, India",ChIJoz6mSgliUjoREym8VYlWwDw,"Paruthipatu, Avadi Market, Chennai"
Avadi Market,54,stop4,Kaduveti,13.077147,80.11103299999999,13.077137770536101,80.11100333843073,"Kaduvetti, SH 55, Viraraghavapuram, Avadi, Tamil Nadu 600077, India",ChIJUYiaZh1iUjoRiC6v6imH-lg,"Kaduveti, Avadi Market, Chennai"
Avadi Market,54,stop5,Seneerkuppam,13.052296,80.112809,13.052302871756327,80.11276530210868,"Senneerkuppam Electronic Board House, Avadi Rd, Periyar Nagar, Chennai, Tamil Nadu 600056, India",ChIJL90ZZsJhUjoRJwXtxN6FRqc,"Seneerkuppam, Avadi Market, Chennai"
Avadi (Veerapuram),55,stop1,Kollumedu GH,13.161989,80.11323100000001,13.16206497283038,80.11314474615864,"Kollumedu, New Vellanur, Tamil Nadu 600062, India",ChIJPeMl2rNiUjoRXNmSTLvSuAE,"Kollumedu GH, Avadi (Veerapuram), Chennai"
Avadi (Veerapuram),55,stop2,Kannadapalayam,13.1839045,80.0821275,13.183983464083942,80.08214336003923,"Veerapuram, Morai, Tamil Nadu 600055, India",ChIJrePDqO6HUjoRztXB0lIScPI,"Kannadapalayam, Avadi (Veerapuram), Chennai"
Avadi (Veerapuram),55,stop3,Vel Tech junction,13.167173,80.09830199999999,13.167212397088901,80.09835505540843,"Vel Tech Junction, Bharathi Nagar, New Vellanur, Tamil Nadu 600065, India",ChIJ3XOoVVV9UjoRJcw2JAPs6dc,"Vel Tech junction, Avadi (Veerapuram), Chennai"
Avadi (Veerapuram),55,stop4,Kovilpathagai,13.1432703,80.1052547,13.143576004974946,80.10527305968645,"3/3, Sannathi St, Kovil Pathagai, Poompozhil Nagar, Kalaingarnagar, Avadi, Tamil Nadu 600062, India",ChIJ8fQvXQBjUjoRPZbYJsQvB0Y,"Kovilpathagai, Avadi (Veerapuram), Chennai"
Avadi (Veerapuram),55,stop5,Ajay stadium,13.1330554,80.1024462,13.1327638,80.1021873,"44M2+6XG, Avadi, Tamil Nadu 600054, India",ChIJDaXcxn9iUjoRymadxobadq0,"Ajay stadium, Avadi (Veerapuram), Chennai"
Avadi (Veerapuram),55,stop6,Kalainar Nagar,13.1839045,80.0821275,13.183983464083942,80.08214336003923,"Veerapuram, Morai, Tamil Nadu 600055, India",ChIJrePDqO6HUjoRztXB0lIScPI,"Kalainar Nagar, Avadi (Veerapuram), Chennai"
Avadi (Veerapuram),55,stop7,Brinda nagar,13.1839045,80.0821275,13.183983464083942,80.08214336003923,"Veerapuram, Morai, Tamil Nadu 600055, India",ChIJrePDqO6HUjoRztXB0lIScPI,"Brinda nagar, Avadi (Veerapuram), Chennai"
Avadi (Veerapuram),55,stop8,CRPF junction,13.1551176,80.0920659,13.155117599999999,80.0920659,"CRPF Rd, Chennai, Tamil Nadu 600055, India",EipDUlBGIFJkLCBDaGVubmFpLCBUYW1pbCBOYWR1IDYwMDA1NSwgSW5kaWEiLiosChQKEgmFRKZTGohSOhGk5MKg3_Fv9xIUChIJYTN9T-plUjoRM9RjaAunYW4,"CRPF junction, Avadi (Veerapuram), Chennai"
Avadi (Veerapuram),55,stop9,Mittanemili,13.1532818,80.0639697,13.15328363905206,80.06394154347163,"Mittanemili, Bharathi Nagar, Avadi, Tamil Nadu 600055, India",ChIJnSoS0XqIUjoRFw17SHJ9ysE,"Mittanemili, Avadi (Veerapuram), Chennai"
Chengalpet,56,stop1,Chengalpet GH,13.0843007,80.2704622,13.0843007,80.2704622,"Chennai, Tamil Nadu, India",ChIJYTN9T-plUjoRM9RjaAunYW4,"Chengalpet GH, Chengalpet, Chennai"
Chengalpet,56,stop2,Chengalpet Rotanakenar,13.0843007,80.2704622,13.0843007,80.2704622,"Chennai, Tamil Nadu, India",ChIJYTN9T-plUjoRM9RjaAunYW4,"Chengalpet Rotanakenar, Chengalpet, Chennai"
Chengalpet,56,stop3,Chengalpet New Bus Stop,13.0843007,80.2704622,13.0843007,80.2704622,"Chennai, Tamil Nadu, India",ChIJYTN9T-plUjoRM9RjaAunYW4,"Chengalpet New Bus Stop, Chengalpet, Chennai"
Chengalpet,56,stop4,Chengalpet Old Bus Stop,13.0843007,80.2704622,13.0843007,80.2704622,"Chennai, Tamil Nadu, India",ChIJYTN9T-plUjoRM9RjaAunYW4,"Chengalpet Old Bus Stop, Chengalpet, Chennai"
Chengalpet,56,stop5,Mahindra city,13.0843007,80.2704622,13.0843007,80.2704622,"Chennai, Tamil Nadu, India",ChIJYTN9T-plUjoRM9RjaAunYW4,"Mahindra city, Chengalpet, Chennai"
Chengalpet,56,stop6,S.P.Koil,13.1925048,80.3095432,13.1925048,80.3095432,"Street Number 2, Girija Nagar, Chennai, Tamil Nadu 600057, India",ChIJMXo8VjdwUjoRXJh-Unh0vXY,"S.P.Koil, Chengalpet, Chennai"
Perungalathur,57,stop1,Perungalathur Bus stop,12.9048703,80.0845623,12.904861826248824,80.08456293537446,"Perungalathur, Tamil Nadu, India",ChIJGzeKUIb1UjoR1StMT4rkKmg,"Perungalathur Bus stop, Perungalathur, Chennai"
Perungalathur,57,stop2,Perungalathur Earikarai,12.9313037,80.1299401,12.9313037,80.1299401,"Erikkarai St, Tambaram, Chennai, Tamil Nadu 600059, India",ChIJP53HCA9fUjoRtLpwGk6VaPc,"Perungalathur Earikarai, Perungalathur, Chennai"
Perungalathur,57,stop3,Irumpuliyur,12.9172182,80.1077205,12.917235901959234,80.10770717648727,"Irumbuliyur, Chennai, Tamil Nadu, India",ChIJLZkpjF1fUjoRQWPYEL1BOtQ,"Irumpuliyur, Perungalathur, Chennai"
Perungalathur,57,stop4,Old Tambaram Kulam,12.9241799,80.1016777,12.924317416792633,80.10171083204955,"Old Tambaram, Tambaram, Chennai, Tamil Nadu 600045, India",ChIJ241Wj2NfUjoRQUzy10j9YL8,"Old Tambaram Kulam, Perungalathur, Chennai"
Perungalathur,57,stop5,Lakshmipuram,12.9048703,80.0845623,12.904861826248824,80.08456293537446,"Perungalathur, Tamil Nadu, India",ChIJGzeKUIb1UjoR1StMT4rkKmg,"Lakshmipuram, Perungalathur, Chennai"
Perungalathur,57,stop6,Krishnanagar,12.9048703,80.0845623,12.904861826248824,80.08456293537446,"Perungalathur, Tamil Nadu, India",ChIJGzeKUIb1UjoR1StMT4rkKmg,"Krishnanagar, Perungalathur, Chennai"
Varatharaja Theatre,58,stop1,Varatharaja Theatre,12.9374509,80.1388951,12.93743501303651,80.13885895589225,"30, 1st Main Rd, Jothi Nagar, Chitlapakkam, Chennai, Tamil Nadu 600064, India",ChIJJcIyDwBfUjoR0TVY_BK6z5g,"Varatharaja Theatre, Varatharaja Theatre, Chennai"
Varatharaja Theatre,58,stop2,Santorium,12.937275,80.138476,12.937316288919424,80.1384795250392,"Varadharaja Theatre, Chitlapakkam 2nd Main Road, Chitlapakkam, Chennai, Tamil Nadu 600064, India",ChIJ3f4AJAFfUjoRqD_FlzqZ3pk,"Santorium, Varatharaja Theatre, Chennai"
Varatharaja Theatre,58,stop3,Bharathamada Street,12.9483218,80.150353,12.948321800000004,80.150353,"Bharatha Matha St, Chromepet, Chennai, Tamil Nadu 600044, India",ChIJV9HaP1FeUjoR4js08KlYaRc,"Bharathamada Street, Varatharaja Theatre, Chennai"
Varatharaja Theatre,58,stop4,Bharathi Nagar,13.0498083,80.2345711,13.049851554536634,80.2345808340659,"Bharathy Nagar, T. Nagar, Chennai, Tamil Nadu 600017, India",ChIJv8psVlhmUjoRhB4GPNCGbEc,"Bharathi Nagar, Varatharaja Theatre, Chennai"
Varatharaja Theatre,58,stop5,Gandhi Nagar,13.0843007,80.2704622,13.0843007,80.2704622,"Chennai, Tamil Nadu, India",ChIJYTN9T-plUjoRM9RjaAunYW4,"Gandhi Nagar, Varatharaja Theatre, Chennai"
Varatharaja Theatre,58,stop6,Padmavathy Kalyanamandapam,12.9374509,80.1388951,12.93743501303651,80.13885895589225,"30, 1st Main Rd, Jothi Nagar, Chitlapakkam, Chennai, Tamil Nadu 600064, India",ChIJJcIyDwBfUjoR0TVY_BK6z5g,"Padmavathy Kalyanamandapam, Varatharaja Theatre, Chennai"
Varatharaja Theatre,58,stop7,Parvathy Nagar,13.1452709,80.24938230000001,13.145337152856591,80.24939864761937,"Parvathi Nagar, Kodungaiyur, Chennai, Tamil Nadu 600118, India",ChIJ06P7VBFlUjoRul8JeUhk_d8,"Parvathy Nagar, Varatharaja Theatre, Chennai"
Varatharaja Theatre,58,stop8,Outer Ring Road (Service Road),12.9374509,80.1388951,12.93743501303651,80.13885895589225,"30, 1st Main Rd, Jothi Nagar, Chitlapakkam, Chennai, Tamil Nadu 600064, India",ChIJJcIyDwBfUjoR0TVY_BK6z5g,"Outer Ring Road (Service Road), Varatharaja Theatre, Chennai"
Hasthinapuram,59,stop1,Hasthinapuram Bus Stand,12.9387231,80.14607749999999,12.938729111070096,80.14603817297132,"Hasthinapuram, Chromepet, Chennai, Tamil Nadu, India",ChIJvaFCklVeUjoRxjPmaP69cGs,"Hasthinapuram Bus Stand, Hasthinapuram, Chennai"
Hasthinapuram,59,stop2,Amman Koil,12.9387231,80.14607749999999,12.938729111070096,80.14603817297132,"Hasthinapuram, Chromepet, Chennai, Tamil Nadu, India",ChIJvaFCklVeUjoRxjPmaP69cGs,"Amman Koil, Hasthinapuram, Chennai"
Hasthinapuram,59,stop3,Kumaran Kundram,12.941869,80.143345,12.941849224650488,80.14334079627041,"Kumaran Kundram, Hasthinapuram, Chromepet, Chennai, Tamil Nadu 600044, India",ChIJC44ZSVVeUjoR_M8q_-FUrlA,"Kumaran Kundram, Hasthinapuram, Chennai"
Hasthinapuram,59,stop4,Bharathi Nagar Auto Stand,12.9387231,80.14607749999999,12.938729111070096,80.14603817297132,"Hasthinapuram, Chromepet, Chennai, Tamil Nadu, India",ChIJvaFCklVeUjoRxjPmaP69cGs,"Bharathi Nagar Auto Stand, Hasthinapuram, Chennai"
Hasthinapuram,59,stop5,Tambaram Gandhi Road,12.9387231,80.14607749999999,12.938729111070096,80.14603817297132,"Hasthinapuram, Chromepet, Chennai, Tamil Nadu, India",ChIJvaFCklVeUjoRxjPmaP69cGs,"Tambaram Gandhi Road, Hasthinapuram, Chennai"
Hasthinapuram,59,stop6,Madanapuram Bridge (outer ring Road),13.0477221,80.0844198,13.047722099999998,80.08441979999999,"Chennai Outer Ring Rd, Tamil Nadu, India",ChIJqSiOfH2KUjoRAv_w3eCeDUU,"Madanapuram Bridge (outer ring Road), Hasthinapuram, Chennai"
Guduvanchery,60,stop1,Guduvanchery Bus stand,12.8447677,80.0616833,12.844703980494222,80.06158014920734,"R3V6+WM3, Nandivaram, Kamarajapuram, Nandhivaram, Guduvancheri, Tamil Nadu 603202, India",ChIJ_x8-8dr3UjoRylJbfzDAAHc,"Guduvanchery Bus stand, Guduvanchery, Chennai"
Guduvanchery,60,stop2,Guduvanchery EB,12.851626,80.066165,12.851676346682602,80.06608845202368,"Guduvancheri EB Office, Mahalakshmi Nagar, Guduvancheri, Tamil Nadu 603202, India",ChIJYXZOk032UjoRmjaNK79Cu4w,"Guduvanchery EB, Guduvanchery, Chennai"
Guduvanchery,60,stop3,Urapakkam Tea Kadai,12.8621186,80.073253,12.862077344000772,80.07334051293206,"Urapakkam- Near Tea kadai, Urapakkam, Chennai, Tamil Nadu 603210, India",ChIJ4c_8G0f2UjoR6v0DEb6aOQ0,"Urapakkam Tea Kadai, Guduvanchery, Chennai"
Guduvanchery,60,stop4,Urapakkam School stop,12.8673697,80.0698575,12.867353456742846,80.06985841944245,"Urapakkam, Tamil Nadu, India",ChIJp4BxTUH2UjoRgcHiqUV9W_0,"Urapakkam School stop, Guduvanchery, Chennai"
Guduvanchery,60,stop5,Vandalur,12.8438835,80.05973639999999,12.843862558746611,80.05975767576302,"Guduvancheri, Tamil Nadu, India",ChIJ9eVFfwn3UjoRJZLhf1X1UT0,"Vandalur, Guduvanchery, Chennai"
Kamatchi Hospital (Pallikaranai),61,stop1,Kamachi Hospital,12.9489215,80.210169,12.948904277690286,80.21021507059389,"Kamatchi Hospital, Chennai, Tamil Nadu 600100, India",ChIJWymrALZdUjoRKOWG2JgjoqY,"Kamachi Hospital, Kamatchi Hospital (Pallikaranai), Chennai"
Kamatchi Hospital (Pallikaranai),61,stop2,Narayanapuram,12.9490313,80.2089704,12.94908417108834,80.20897889593508,"Flyover Tambaram Velachery Main Road Bridge Pallikaranai, Pallavaram-Thuraipakkam Rd, Dandeeswarar Nagar, Rose Avenue, Kovilambakkam, Chennai, Tamil Nadu 600100, India",ChIJJdYrRgBdUjoR8QWjn_GuVNM,"Narayanapuram, Kamatchi Hospital (Pallikaranai), Chennai"
Kamatchi Hospital (Pallikaranai),61,stop3,Pallikaranai Oil Mill,12.9490397,80.20904159999999,12.949073765559714,80.209047074056,"1, 200 Feet Radial Rd, Dandeeswarar Nagar, Rose Avenue, Pallikaranai, Chennai, Tamil Nadu 600100, India",ChIJc84A-sldUjoRi7DXwEpL1qE,"Pallikaranai Oil Mill, Kamatchi Hospital (Pallikaranai), Chennai"
Kamatchi Hospital (Pallikaranai),61,stop4,Pallikaranai Govt School,12.9490397,80.20904159999999,12.949073765559714,80.209047074056,"1, 200 Feet Radial Rd, Dandeeswarar Nagar, Rose Avenue, Pallikaranai, Chennai, Tamil Nadu 600100, India",ChIJc84A-sldUjoRi7DXwEpL1qE,"Pallikaranai Govt School, Kamatchi Hospital (Pallikaranai), Chennai"
Kamatchi Hospital (Pallikaranai),61,stop5,Pallikaranai Jayachandran,12.9213919,80.1975877,12.92166149543527,80.19757909749862,"1A, Jeyachandran Nagar 1st Main Rd, Jeyachandran Nagar, Pallikaranai, Chennai, Tamil Nadu 600100, India",ChIJA7kGwCJcUjoRiMj28USFEoU,"Pallikaranai Jayachandran, Kamatchi Hospital (Pallikaranai), Chennai"
Kamatchi Hospital (Pallikaranai),61,stop6,Nilgiris Supermarket,12.9282176,80.2315279,12.928143401502835,80.23150799826405,"Sukasri Retails, Nakshatra Apartments, Rajiv Gandhi Salai, Annani Indira Nagar, Indira Nagar, Thoraipakkam, Chennai, Tamil Nadu 600097, India",ChIJi3zH1gZdUjoRFAVZn3jz8ZA,"Nilgiris Supermarket, Kamatchi Hospital (Pallikaranai), Chennai"
Medavakkam X Road,62,stop1,Medavakkam X Road,12.9164692,80.1915157,12.9164692,80.1915157,"Main Rd, Munusamy Nagar, Vimala Nagar, Medavakkam, Chennai, Tamil Nadu 600100, India",ChIJi5Eu3R5cUjoRVpt35hp5aTE,"Medavakkam X Road, Medavakkam X Road, Chennai"
Medavakkam X Road,62,stop2,Puthukoil Bus Stop,12.9188883,80.1789361,12.918889125185276,80.17893906697593,"Puthu Koil Bus Stop, Vijayanagaram 2nd Main Rd, Vijayanagaram, Nanmangalam Reserved Forest, Medavakkam, Chennai, Tamil Nadu 600117, India",ChIJP6PQhqJeUjoRScPY8UcUwL4,"Puthukoil Bus Stop, Medavakkam X Road, Chennai"
Medavakkam X Road,62,stop3,Santhoshpuram Signal,12.9164692,80.1915157,12.9164692,80.1915157,"Main Rd, Munusamy Nagar, Vimala Nagar, Medavakkam, Chennai, Tamil Nadu 600100, India",ChIJi5Eu3R5cUjoRVpt35hp5aTE,"Santhoshpuram Signal, Medavakkam X Road, Chennai"
Medavakkam X Road,62,stop4,Sembakkam Signal,12.9234492,80.1587694,12.923435698019604,80.15876802989156,"Sembakkam, Chennai, Tamil Nadu, India",ChIJjwSIZuleUjoRjDpmw_YilvQ,"Sembakkam Signal, Medavakkam X Road, Chennai"
Medavakkam X Road,62,stop5,Rajakilpakkam Signal,12.9177246,80.1556572,12.917641900000001,80.15544369999999,"Rajakilpakkam, Tamil Nadu 600073, India",ChIJR4hXheZeUjoRNt5dLX5VzCc,"Rajakilpakkam Signal, Medavakkam X Road, Chennai"
Padur,63,stop1,Siruseri Roundtana,12.8076844,80.22581149999999,12.807698109277494,80.22581610218782,"Padur, Tamil Nadu, India",ChIJJVqjZ4NQUjoRnIAtJlCtjrc,"Siruseri Roundtana, Padur, Chennai"
Padur,63,stop2,Padur Market,12.8013122,80.22353729999999,12.801314571966463,80.22352311047416,"R62F+GCF, Thirupathi Nagar Main Rd, Chennai, Padur, Tamil Nadu 603103, India",ChIJQYaCPQBRUjoRvODryRdeHxw,"Padur Market, Padur, Chennai"
Padur,63,stop3,Hindustan College,12.8012994,80.22372709999999,12.801310946003737,80.22359066864053,"Rajiv Gandhi Salai, OMR, Padur, Kelambakkam, Tamil Nadu 603103, India",ChIJ11MzfYRQUjoR29pi8_FaWGo,"Hindustan College, Padur, Chennai"
Padur,63,stop4,Kelambakkam(Vandalur X Road),12.8912559,80.08100089999999,12.891254368706615,80.08100083347657,"Vandalur, Tamil Nadu 600048, India",ChIJy7t0xgn2UjoRM_bhnwg2rB8,"Kelambakkam(Vandalur X Road), Padur, Chennai"
Padur,63,stop5,Pudupakkam,12.8076844,80.22581149999999,12.807698109277494,80.22581610218782,"Padur, Tamil Nadu, India",ChIJJVqjZ4NQUjoRnIAtJlCtjrc,"Pudupakkam, Padur, Chennai"
Padur,63,stop6,Mambakkam,12.8385371,80.1697145,12.838536304130661,80.16971568037204,"Mambakkam, Tamil Nadu 600127, India",ChIJ8bkG7L9ZUjoRr1TOsm_mR4o,"Mambakkam, Padur, Chennai"
Padur,63,stop7,Mambakkam Sivan Koil,12.8052822,80.2233941,12.805282200000002,80.2233941,"Sivan Kovil St, Padur, Tamil Nadu 603103, India",ChIJxxV884JQUjoRhxQxd7qi4-g,"Mambakkam Sivan Koil, Padur, Chennai"
