route_name,route_index,stop_id,stop_name,original_latitude,original_longitude,snapped_latitude,snapped_longitude,formatted_address,place_id,search_query
Ennore Bus Stand,0,stop1,Ernavur anna nagar,13.0849557,80.2101342,13.0849555836434,80.21014749449846,"Anna Nagar, Chennai, Tamil Nadu, India",ChIJm3EiiAdkUjoR4oGVuHcQoL0,"Ernavur anna nagar, Ennore Bus Stand, Chennai"
Ennore Bus Stand,0,stop2,Lift Gate,13.1850045,80.3120735,13.184989547761706,80.31207003610656,"Lift Gate, Bharath Nagar, Neidhal Nagar, Tiruvottiyur, Chennai, Tamil Nadu 600057, India",ChIJjZ4Jxy9wUjoRfCXYh5a_v4E,"Lift Gate, Ennore Bus Stand, Chennai"
Ennore Bus Stand,0,stop3,ITC,13.2145944,80.3202929,13.214582250726563,80.3203122018703,"Ennore, Tamil Nadu 600057, India",ChIJS7gITkZwUjoRogavtRBd_sQ,"ITC, Ennore Bus Stand, Chennai"
Ennore Bus Stand,0,stop4,Wimco nagar,13.1802412,80.3057142,13.180276790387934,80.30557429452449,"Wimco Nagar, Ramanathapuram, Tiruvottiyur, Chennai, Tamil Nadu 600057, India",ChIJe2RFHyRwUjoRxUynaswyAoM,"Wimco nagar, Ennore Bus Stand, Chennai"
Ennore Bus Stand,0,stop5,Thiruvottiyur Market,13.1639178,80.3034824,13.163916177403902,80.30352857493824,"Thiruvottiyur Market, Thiruvottiyur High Rd, Tiruvottiyur, Chennai, Tamil Nadu 600019, India",ChIJqf6Yv9xvUjoRTmLXIw_HuGs,"Thiruvottiyur Market, Ennore Bus Stand, Chennai"
Ennore Bus Stand,0,stop6,Theradi,13.2145944,80.3202929,13.214582250726563,80.3203122018703,"Ennore, Tamil Nadu 600057, India",ChIJS7gITkZwUjoRogavtRBd_sQ,"Theradi, Ennore Bus Stand, Chennai"
Ennore Bus Stand,0,stop7,Kaladipet market,13.2145944,80.3202929,13.214582250726563,80.3203122018703,"Ennore, Tamil Nadu 600057, India",ChIJS7gITkZwUjoRogavtRBd_sQ,"Kaladipet market, Ennore Bus Stand, Chennai"
Ennore Bus Stand,0,stop8,Raja Kadai,13.2160762,80.3194153,13.21607449181983,80.31942464186453,"6889+CQM, Sivan Padai St, Kathivakkam, Ennore, Chennai, Tamil Nadu 600057, India",ChIJsQ_vMR9xUjoRY_uY7KYxy-A,"Raja Kadai, Ennore Bus Stand, Chennai"
Ennore Bus Stand,0,stop9,Thangal,13.147959,80.298189,13.147940229783469,80.29823605199259,"Thangal, Thangal, Vasantha Nagar, Rajakadai, Tiruchanankuppam, Chennai, Tamil Nadu 600019, India",ChIJTcdDkJVvUjoR8rxBwBWw68I,"Thangal, Ennore Bus Stand, Chennai"
Ennore Bus Stand,0,stop10,Tollgate,13.14347,80.29639999999999,13.143470017270781,80.29639995631594,"Tollgate Metro, Thangal, Vasantha Nagar, Tondiarpet, Chennai, Tamil Nadu 600081, India",ChIJ377JV5ZvUjoRcoE4Loya--k,"Tollgate, Ennore Bus Stand, Chennai"
Tondiarpet (RTO Office),1,stop1,Tondiarpet Depot,13.1261062,80.2879959,13.12610148458203,80.28799454472447,"Tondiarpet, Chennai, Tamil Nadu, India",ChIJh9s_r5BvUjoRKw4H6KtqPiw,"Tondiarpet Depot, Tondiarpet (RTO Office), Chennai"
Tondiarpet (RTO Office),1,stop2,Kasimedu,13.1251136,80.2955419,13.125107315553846,80.29564962361539,"Kasimedu, Royapuram, Chennai, Tamil Nadu 600013, India",ChIJUzbskm1vUjoRIT4AE1ylr3M,"Kasimedu, Tondiarpet (RTO Office), Chennai"
Tondiarpet (RTO Office),1,stop3,Kasimedu Petrol Bunk,13.1251136,80.2955419,13.125107315553846,80.29564962361539,"Kasimedu, Royapuram, Chennai, Tamil Nadu 600013, India",ChIJUzbskm1vUjoRIT4AE1ylr3M,"Kasimedu Petrol Bunk, Tondiarpet (RTO Office), Chennai"
Tondiarpet (RTO Office),1,stop4,kalmandapam Police Station,13.1158257,80.29484529999999,13.115792362801521,80.29497297652364,"Kalmandapam, Royapuram, Chennai, Tamil Nadu 600013, India",ChIJEaXwkm1vUjoRFNa02rZNYZ8,"kalmandapam Police Station, Tondiarpet (RTO Office), Chennai"
Tondiarpet (RTO Office),1,stop5,ST Anne's School,13.1104695,80.29235190000001,13.1104325,80.29227089999999,"PUDUMANI KUPPAM MAIN BLOCK, ST. ANNE'S GIRLS HIGHER SECONDARY SCHOOL-PUDUMANI KUPPAM, Surya Narayana St, Pudumani Kuppam, Royapuram, Chennai, Tamil Nadu 600013, India",ChIJxUEgR2lvUjoRj5lY0IzrB-8,"ST Anne's School, Tondiarpet (RTO Office), Chennai"
Tondiarpet (RTO Office),1,stop6,Royapuram Bridge,13.1050173,80.28928789999999,13.104944864696504,80.28945021740519,"Royapuram Bridge, Anjaneya Nagar, Old Washermanpet, Chennai, Tamil Nadu 600013, India",ChIJSxjYfkJvUjoR9jrOTXutQnA,"Royapuram Bridge, Tondiarpet (RTO Office), Chennai"
Tondiarpet (RTO Office),1,stop7,Beach Station,13.091686,80.2920659,13.091847559170073,80.29156211767993,"37RR+MRG Beach station, Beach station, Chennai Port Trust, Chennai, Tamil Nadu 600001, India",ChIJJxDOH5ZvUjoRamynddE6Z4s,"Beach Station, Tondiarpet (RTO Office), Chennai"
Tondiarpet (RTO Office),1,stop8,Annamalai Mandram,13.0858633,80.28419439999999,13.086039378771334,80.28423418031213,"Rajah Annamalai Mandram, 5, Esplanade Rd, Esplanade, George Town, Chennai, Tamil Nadu 600104, India",ChIJJ6yqplNvUjoRx9ObD38WQDM,"Annamalai Mandram, Tondiarpet (RTO Office), Chennai"
Tondiarpet (RTO Office),1,stop9,GH (Rajiv Gandhi Hospital),13.0812224,80.2768198,13.08092132214472,80.27684429574596,"Poonamallee High Rd, Periamet, Park Town, Chennai, Tamil Nadu 600003, India",ChIJUXJbp6poUjoRb2mFfjs7zoQ,"GH (Rajiv Gandhi Hospital), Tondiarpet (RTO Office), Chennai"
Tondiarpet (RTO Office),1,stop10,Everest Hotel,13.0807579,80.26881689999999,13.080772322926439,80.26881625863466,"23, Poonamallee High Rd, opp. Sub Registrar Office, Periamet, Adikesavarpuram, Poongavanapuram, Chennai, Tamil Nadu 600003, India",ChIJu2YH1b5nUjoRMdcksyePpls,"Everest Hotel, Tondiarpet (RTO Office), Chennai"
Tondiarpet (RTO Office),1,stop11,Neyveli House,13.0776932,80.2466267,13.077706803612012,80.24660276792822,"154, Poonamallee High Rd, New Bupathy Nagar, Kilpauk, Chennai, Tamil Nadu 600010, India",ChIJzcrE-nZmUjoRfwNNScZBjpg,"Neyveli House, Tondiarpet (RTO Office), Chennai"
Tondiarpet (RTO Office),1,stop12,KMC,13.1318065,80.29214879999999,13.131817239169854,80.29211679756811,"145/3, Balakrishna 1st St, Kasipuram, Tondiarpet, Chennai, Tamil Nadu 600081, India",ChIJC_ucOZxvUjoR9BnCaAd9BOM,"KMC, Tondiarpet (RTO Office), Chennai"
Tondiarpet,2,stop1,Tondiarpet Mani Cycle Shop,13.1251842,80.289183,13.12520769110104,80.28912344931781,"47GQ+3MF, Kesavan St, Sanjeevarayanpet, Tondiarpet, Chennai, Tamil Nadu 600081, India",ChIJ2wdoc3dvUjoRvqBlc6s-k1w,"Tondiarpet Mani Cycle Shop, Tondiarpet, Chennai"
Tondiarpet,2,stop2,Police Quarters,13.1389693,80.28836919999999,13.138953108863118,80.28836280623962,"47QQ+H8Q, Sivan Nagar, Police Colony, Tondiarpet, Chennai, Tamil Nadu 600081, India",ChIJi8kxFmVvUjoRiDLDAKYHYag,"Police Quarters, Tondiarpet, Chennai"
Tondiarpet,2,stop3,Post Office,13.1427586,80.2962417,13.142749992382967,80.29626274528958,"111, Tolgate, Srinivasa Nagar, Tondiarpet, Chennai, Tamil Nadu 600019, India",ChIJxdAIR75vUjoRmwfXbzaf5Fo,"Post Office, Tondiarpet, Chennai"
Tondiarpet,2,stop4,Maharani (Singapore Shoppee),13.1159028,80.283499,13.11595996705457,80.28340360096675,"1065, 1067, Thiruvottiyur High Rd, Mottai Garden, Washermanpet, Chennai, Tamil Nadu 600021, India",ChIJKUa5yWRvUjoRzZWfXjz4Nxc,"Maharani (Singapore Shoppee), Tondiarpet, Chennai"
Ajax,3,stop1,Ajax Bus Depot,43.8611288,-79.0259267,43.861128072482984,-79.02593013095394,"Ajax, ON, Canada",ChIJ0RWtQbTn1IkRzr6A0wHhd_s,"Ajax Bus Depot, Ajax, Chennai"
Ajax,3,stop2,Periyar nagar,13.1138311,80.2250885,13.113542873281517,80.22497221559983,"Periyar Nagar West, Perambur, Chennai, Tamil Nadu 600082, India",ChIJ3-cPGE5kUjoRwvWyvZCG_zc,"Periyar nagar, Ajax, Chennai"
Ajax,3,stop3,Ellaiamman koil,13.158073,80.30137479999999,13.158125657403126,80.30138773513592,"Ellaiamman Koil, S Mada St, Tirumala Avenue, Tirumalai Avenue, Rajakadai, Tiruvottiyur, Chennai, Tamil Nadu 600019, India",ChIJf244LsJvUjoRs_odSDNoivU,"Ellaiamman koil, Ajax, Chennai"
Ajax,3,stop4,Lakshmi koil,13.135157,80.29321,13.135151217141779,80.2932250066307,"Lakshmi Amman Koil, Thiruvottiyur High Rd, New Washermenpet, Tondiarpet, Chennai, Tamil Nadu 600081, India",ChIJzdEJ-ZtvUjoR1ghwOQPM5ts,"Lakshmi koil, Ajax, Chennai"
Ajax,3,stop5,Cemetery road,13.1092187,80.2861011,13.109218700000001,80.2861011,"Cemetery Rd, Chennai, Tamil Nadu, India",ChIJiRTeRGZvUjoRJbsAUElyrnA,"Cemetery road, Ajax, Chennai"
Ajax,3,stop6,Mint Old Bus stand,13.0843007,80.2704622,13.0843007,80.2704622,"Chennai, Tamil Nadu, India",ChIJYTN9T-plUjoRM9RjaAunYW4,"Mint Old Bus stand, Ajax, Chennai"
Ajax,3,stop7,Mint New Bus stand,13.1236427,80.2654882,13.12364531855353,80.26528114024676,"47F8+C65, Block H3 & H4, Mahakavi Bharathiyar Nagar East, Vasantham Garden, Vyasarpadi, Chennai, Tamil Nadu 600039, India",ChIJ_b6cLwBlUjoRhDJFD63w8VE,"Mint New Bus stand, Ajax, Chennai"
Ajax,3,stop8,Padmanabha Theatre,13.101126,80.274931,13.101090705431137,80.27483238948635,"Padmanabha Theatre, Peddanaickenpet, George Town, Chennai, Tamil Nadu 600001, India",ChIJ4QxiufVlUjoRJuXFNs0SEk8,"Padmanabha Theatre, Ajax, Chennai"
Choolai,4,stop1,Choolai post office,13.0904122,80.2655501,13.090408033354784,80.26560710041655,"37R8+567, Tiru Narayana Guru Rd, Choolai, Chennai, Tamil Nadu 600112, India",ChIJ0c431eRlUjoR7nM_o3t1geE,"Choolai post office, Choolai, Chennai"
Choolai,4,stop2,Veperi Police Station,13.0853311,80.2607068,13.085448899999998,80.2604248,"Periamet, Vepery, Chennai, Tamil Nadu, India",ChIJqRXoMOJlUjoRv6Xy0rbfqLA,"Veperi Police Station, Choolai, Chennai"
Choolai,4,stop3,Muthumari amman Koil- Pursaiwakkam,13.1108817,80.2204402,13.1108817,80.2204402,"Muthumari Amman Koil, Chennai, Tamil Nadu 600082, India",ChIJNUG8aE9kUjoRCCiWePO3ogc,"Muthumari amman Koil- Pursaiwakkam, Choolai, Chennai"
Choolai,4,stop4,Gangadeeswarar Koil,13.083655,80.2545824,13.083654999999998,80.2545824,"Gangadeeshwar Koil St, Purasaiwakkam, Chennai, Tamil Nadu 600084, India",ChIJRSj1d-BlUjoRoOXhjSCHc_4,"Gangadeeswarar Koil, Choolai, Chennai"
Choolai,4,stop5,Alagappa Road,13.0817742,80.2528355,13.081774315454545,80.25283543730274,"Alagappa Rd, Purasaiwakkam, Chennai, Tamil Nadu, India",ChIJgQWt8nVmUjoRZ84c4ANJwGg,"Alagappa Road, Choolai, Chennai"
Choolai,4,stop6,Pathala Ponniammam Koil,13.1039275,80.2850881,13.1039275,80.2850881,"Ponniamman Koil St, George Town, Chennai, Tamil Nadu 600001, India",ChIJGf3yoV1vUjoR1OnHCU2fyBM,"Pathala Ponniammam Koil, Choolai, Chennai"
Choolai,4,stop7,Motcham theatre,13.0845859,80.2503526,13.084589351884746,80.2503338387272,"37M2+R4Q, Millers Rd, Kilpauk, Chennai, Tamil Nadu 600010, India",ChIJzZUn4d5lUjoRQakqJILharI,"Motcham theatre, Choolai, Chennai"
Choolai,4,stop8,Mummy Daddy,13.0983799,80.2604903,13.098377689885213,80.26048864645547,"37X6+955, Demellows Rd, Pattalam, Pulianthope, Chennai, Tamil Nadu 600012, India",ChIJNYnlru5lUjoRboueozgxBvM,"Mummy Daddy, Choolai, Chennai"
Dovton Bridge,5,stop1,Muthumariamman kovil (Dovton Bridge),13.0868849,80.25907649999999,13.086899121231463,80.25907860216714,"Doveton Bridge, Jermiah Rd, Periamet, Vepery, Chennai, Tamil Nadu 600007, India",ChIJMc7jTuFlUjoRsIozImdd3Xg,"Muthumariamman kovil (Dovton Bridge), Dovton Bridge, Chennai"
Dovton Bridge,5,stop2,Kellys - Signal,13.0868849,80.25907649999999,13.086899121231463,80.25907860216714,"Doveton Bridge, Jermiah Rd, Periamet, Vepery, Chennai, Tamil Nadu 600007, India",ChIJMc7jTuFlUjoRsIozImdd3Xg,"Kellys - Signal, Dovton Bridge, Chennai"
Dovton Bridge,5,stop3,Murugan Hospital,13.0868849,80.25907649999999,13.086899121231463,80.25907860216714,"Doveton Bridge, Jermiah Rd, Periamet, Vepery, Chennai, Tamil Nadu 600007, India",ChIJMc7jTuFlUjoRsIozImdd3Xg,"Murugan Hospital, Dovton Bridge, Chennai"
Dovton Bridge,5,stop4,Kallarai- Road,13.0868849,80.25907649999999,13.086899121231463,80.25907860216714,"Doveton Bridge, Jermiah Rd, Periamet, Vepery, Chennai, Tamil Nadu 600007, India",ChIJMc7jTuFlUjoRsIozImdd3Xg,"Kallarai- Road, Dovton Bridge, Chennai"
Dovton Bridge,5,stop5,Periyapalayathamman Temple,13.0868849,80.25907649999999,13.086899121231463,80.25907860216714,"Doveton Bridge, Jermiah Rd, Periamet, Vepery, Chennai, Tamil Nadu 600007, India",ChIJMc7jTuFlUjoRsIozImdd3Xg,"Periyapalayathamman Temple, Dovton Bridge, Chennai"
Dovton Bridge,5,stop6,Shenoy nagar Bus Stop,13.081553,80.22531099999999,13.081502858782516,80.22530912674458,"Shenoy Nagar, Pulla Ave, Bharathi Puram, Annanagar East, Chennai, Tamil Nadu 600030, India",ChIJy1g-6ilkUjoRiZJDWH_dh70,"Shenoy nagar Bus Stop, Dovton Bridge, Chennai"
Chintadripet,6,stop1,Chintadripet Fish Market,13.0755096,80.2694866,13.075460793953013,80.2694738546269,"38, Arunachala St, Egmore, Arunachala Street, Egmore, Adikesavarpuram, Chintadripet, Chennai, Tamil Nadu 600002, India",ChIJY9bAfgBnUjoRNjpVR-Edw_4,"Chintadripet Fish Market, Chintadripet, Chennai"
Chintadripet,6,stop2,Chintadripet Market,13.0752459,80.269791,13.075371281913837,80.26982618843769,"Swamy Pandaram St, Chintadripet, Chennai, Tamil Nadu 600002, India",ChIJF8VQyQVmUjoRt1ie1MZb3Zw,"Chintadripet Market, Chintadripet, Chennai"
Chintadripet,6,stop3,Chintadripet Police Quarters,13.0680968,80.2630339,13.0680968,80.2630339,"Police Quarters Ln, Pudupet, Komaleeswaranpet, Egmore, Chennai, Tamil Nadu 600002, India",ChIJmcmSShBmUjoR2iWt5rRIIdI,"Chintadripet Police Quarters, Chintadripet, Chennai"
Chintadripet,6,stop4,Pudupet,13.0690843,80.264191,13.069018475228042,80.26419742648669,"Pudupet, Komaleeswaranpet, Egmore, Chennai, Tamil Nadu, India",ChIJn8geEBBmUjoR-iqyz06i_fE,"Pudupet, Chintadripet, Chennai"
Chintadripet,6,stop5,Egmore Court,13.073011,80.26199,13.072995382024748,80.2619848873792,"Egmore Court, Pudupet, Komaleeswaranpet, Egmore, Chennai, Tamil Nadu 600008, India",ChIJh8coXw5mUjoRr-WnuP4iCMo,"Egmore Court, Chintadripet, Chennai"
Chintadripet,6,stop6,Rajarthinam Stadium,13.0675072,80.2617137,13.067565446497763,80.26108451672798,"Rukmani Lakshmipathi Rd, opposite to vijaya bank, Pudupet, Komaleeswaranpet, Egmore, Chennai, Tamil Nadu 600002, India",ChIJt__JCxFmUjoReSHFU5asp5o,"Rajarthinam Stadium, Chintadripet, Chennai"
Chintadripet,6,stop7,Egmore (Co-Optex) Bridge,13.0680138,80.2549994,13.067824490291416,80.25520127361551,"350, Pantheon Rd, Sulaiman Zackria Avenue, Egmore, Chennai, Tamil Nadu 600008, India",ChIJVRvizxJmUjoRLJmkuhHiGEU,"Egmore (Co-Optex) Bridge, Chintadripet, Chennai"
Chintadripet,6,stop8,Halls Road Junction,13.0734014,80.2564261,13.073401400000002,80.2564261,"Tamil Salai, Egmore, Chennai, Tamil Nadu 600008, India",ChIJQRRx4QxmUjoRXpDHyW9gtNk,"Halls Road Junction, Chintadripet, Chennai"
Chintadripet,6,stop9,Chepet Signal,13.0749917,80.2697653,13.074843520908297,80.26972393633537,"Chintadripet, Chennai, Tamil Nadu, India",ChIJiTxWwgRmUjoRLq6ETQcCAyI,"Chepet Signal, Chintadripet, Chennai"
Chintadripet,6,stop10,Harington Road Junction,13.069382,80.2370451,13.069381999999997,80.2370451,"Harrington Rd, Chennai, Tamil Nadu, India",ChIJIW5ZhH1mUjoRVSGC9XYESuc,"Harington Road Junction, Chintadripet, Chennai"
Chintadripet,6,stop11,Pantaloon,13.061336,80.261307,13.06111647976623,80.26150916219325,"768, அண்ணா சாலை, Anna Salai, Chintadripet, Chennai, Tamil Nadu 600002, India",ChIJmY03fRZmUjoRcOQOWOB1rIk,"Pantaloon, Chintadripet, Chennai"
Chintadripet,6,stop12,Skywalk bridge,13.0763106,80.26580229999999,13.076341601970885,80.26580845151572,"Bridge, Arunachallam St, Komaleeswaranpet, Chintadripet, Chennai, Tamil Nadu 600002, India",ChIJbe2lAAZmUjoRs4IuTgo6ur0,"Skywalk bridge, Chintadripet, Chennai"
Loyola College,7,stop1,Loyola College,13.0629294,80.2334959,13.06278774165464,80.23349736861711,"24, 9, Nelson Manickam Rd, Nungambakkam, Chennai, Tamil Nadu 600034, India",ChIJs8q5QoRnUjoRJ-xgHECGPf4,"Loyola College, Loyola College, Chennai"
Loyola College,7,stop2,Nungambakkam Railway Station,13.0644396,80.232619,13.064448714887689,80.2325179956278,"Nungambakkam, Railway Border Rd, Sowrashtra Nagar, Choolaimedu, Chennai, Tamil Nadu 600094, India",ChIJ3RWncWJmUjoR37H5hJC124Q,"Nungambakkam Railway Station, Loyola College, Chennai"
Loyola College,7,stop3,Mehta Nagar,13.0629294,80.2334959,13.06278774165464,80.23349736861711,"24, 9, Nelson Manickam Rd, Nungambakkam, Chennai, Tamil Nadu 600034, India",ChIJs8q5QoRnUjoRJ-xgHECGPf4,"Mehta Nagar, Loyola College, Chennai"
Loyola College,7,stop4,Anna Arch,13.0629294,80.2334959,13.06278774165464,80.23349736861711,"24, 9, Nelson Manickam Rd, Nungambakkam, Chennai, Tamil Nadu 600034, India",ChIJs8q5QoRnUjoRJ-xgHECGPf4,"Anna Arch, Loyola College, Chennai"
Loyola College,7,stop5,Arumpakkam- Indian Hospital,13.0629294,80.2334959,13.06278774165464,80.23349736861711,"24, 9, Nelson Manickam Rd, Nungambakkam, Chennai, Tamil Nadu 600034, India",ChIJs8q5QoRnUjoRJ-xgHECGPf4,"Arumpakkam- Indian Hospital, Loyola College, Chennai"
Chintamani,8,stop1,Chintamani,13.0856126,80.22405359999999,13.085667156406519,80.22417252877186,"Chintamani, 1st Ave, G Block, Annanagar East, Chennai, Tamil Nadu 600102, India",ChIJlVw5KSlkUjoRDOh6Q81Q70c,"Chintamani, Chintamani, Chennai"
Chintamani,8,stop2,K3 Police station,13.0812048,80.2179792,13.081209135259437,80.21793651320701,"3rd Avenue, Shenoy Nagar, Anna Arch Rd, NSK Nagar, Arumbakkam, Chennai, Tamil Nadu 600106, India",ChIJ5yQzdCdkUjoRwKIxWTya3pQ,"K3 Police station, Chintamani, Chennai"
Chintamani,8,stop3,Razack Garden,13.0740394,80.2164456,13.074095011321887,80.2164541498359,"Razaak Garden, Ayyavoo Colony, Aminjikarai, Chennai, Tamil Nadu 600106, India",ChIJtbfc7ZtmUjoRZ-qPBTL8DyY,"Razack Garden, Chintamani, Chennai"
Chintamani,8,stop4,MMDA,13.1684411,80.24502629999999,13.16844213712294,80.24499868291267,"MMDA, TNHB Layout, Mathur, Tamil Nadu 600068, India",ChIJTZNKMjJlUjoR0jNhM0BVylU,"MMDA, Chintamani, Chennai"
Chintamani,8,stop5,MMDA Bus Depot,13.065185,80.2113182,13.065134809993124,80.21123799236376,"M.M.D.A., Jawaharlal Nehru Salai, Ashoka Nagar, Sri Sakthi Nagar, Balavinayagar Nagar, Chennai, Tamil Nadu 600106, India",ChIJ9-1lSJZmUjoRq92sn-T-t1E,"MMDA Bus Depot, Chintamani, Chennai"
Maduravoyal Erikarai,9,stop1,Maduravoyal Erikarai,13.061556,80.1433335,13.061490693884322,80.14333785853717,"Madhuravoyal Earikarai, Ganga Nagar, Chennai, Tamil Nadu 600077, India",ChIJG7mSGHZhUjoRkP1ciYgIKbQ,"Maduravoyal Erikarai, Maduravoyal Erikarai, Chennai"
Maduravoyal Erikarai,9,stop2,Vanagaram bus stop,13.0603972,80.15475579999999,13.06041162842412,80.15475599960374,"3563+5W2, NH 48, Sivabatham, Maduravoyal, Chennai, Tamil Nadu 600095, India",ChIJ74WgCtphUjoRA791MOs5yH4,"Vanagaram bus stop, Maduravoyal Erikarai, Chennai"
Maduravoyal Erikarai,9,stop3,Shrivari Signal,13.0686094,80.1831219,13.068609399999998,80.1831219,"Erikarai St, Pallavan Nagar, Koyambedu, Chennai, Tamil Nadu, India",ChIJn7N-ElJhUjoRI3OM4auiSrk,"Shrivari Signal, Maduravoyal Erikarai, Chennai"
Maduravoyal Erikarai,9,stop4,Velappanchavadi (Harsha Toyota),13.0686094,80.1831219,13.068609399999998,80.1831219,"Erikarai St, Pallavan Nagar, Koyambedu, Chennai, Tamil Nadu, India",ChIJn7N-ElJhUjoRI3OM4auiSrk,"Velappanchavadi (Harsha Toyota), Maduravoyal Erikarai, Chennai"
Thirunagar (Ambica Empire Hotel),10,stop1,Thirunagar (Ambica Empire Hotel),13.0557401,80.21116549999999,13.055754448833062,80.21094888909829,"79, Jawaharlal Nehru Salai, Thiru Nagar Colony, NGO Colony, Vadapalani, Chennai, Tamil Nadu 600026, India",ChIJrV9qfUteUjoR1kJK_CZdxVE,"Thirunagar (Ambica Empire Hotel), Thirunagar (Ambica Empire Hotel), Chennai"
Thirunagar (Ambica Empire Hotel),10,stop2,Vallavan Hotel,13.0546842,80.2129595,13.05470476089369,80.21296060046915,"Thirunagar, Vadapalani, Chennai, Tamil Nadu 600026, India",ChIJa80iAOtmUjoRVss_YGmMnB0,"Vallavan Hotel, Thirunagar (Ambica Empire Hotel), Chennai"
Thirunagar (Ambica Empire Hotel),10,stop3,SAF Games Village,13.0648085,80.20773,13.064628174909986,80.20771076010128,"SAF Games Village, Annai Sathya Nagar, Koyambedu, Chennai, Tamil Nadu, India",ChIJOc2wur1mUjoRPtEBWq2Snqw,"SAF Games Village, Thirunagar (Ambica Empire Hotel), Chennai"
Thirunagar (Ambica Empire Hotel),10,stop4,Vijayakanth kalayana Mandapam,13.0745851,80.2001034,13.074523601364618,80.19994191034961,"j n saalai, 36F2+R2Q, Jawaharlal Nehru Salai, Janakiraman Colony, Koyambedu, Chennai, Tamil Nadu 600107, India",ChIJOfyT0mdnUjoRWqmp_ulCWJQ,"Vijayakanth kalayana Mandapam, Thirunagar (Ambica Empire Hotel), Chennai"
Thirunagar (Ambica Empire Hotel),10,stop5,Toyota Show Room,13.0557401,80.21116549999999,13.055754448833062,80.21094888909829,"79, Jawaharlal Nehru Salai, Thiru Nagar Colony, NGO Colony, Vadapalani, Chennai, Tamil Nadu 600026, India",ChIJrV9qfUteUjoR1kJK_CZdxVE,"Toyota Show Room, Thirunagar (Ambica Empire Hotel), Chennai"
Thirunagar (Ambica Empire Hotel),10,stop6,Jems Apartment,13.0546842,80.2129595,13.05470476089369,80.21296060046915,"Thirunagar, Vadapalani, Chennai, Tamil Nadu 600026, India",ChIJa80iAOtmUjoRVss_YGmMnB0,"Jems Apartment, Thirunagar (Ambica Empire Hotel), Chennai"
Thirunagar (Ambica Empire Hotel),10,stop7,Nerkundram,13.0546842,80.2129595,13.05470476089369,80.21296060046915,"Thirunagar, Vadapalani, Chennai, Tamil Nadu 600026, India",ChIJa80iAOtmUjoRVss_YGmMnB0,"Nerkundram, Thirunagar (Ambica Empire Hotel), Chennai"
Thirunagar (Ambica Empire Hotel),10,stop8,Vengaya Mandi,13.0546842,80.2129595,13.05470476089369,80.21296060046915,"Thirunagar, Vadapalani, Chennai, Tamil Nadu 600026, India",ChIJa80iAOtmUjoRVss_YGmMnB0,"Vengaya Mandi, Thirunagar (Ambica Empire Hotel), Chennai"
Thirunagar (Ambica Empire Hotel),10,stop9,College campus,13.0546842,80.2129595,13.05470476089369,80.21296060046915,"Thirunagar, Vadapalani, Chennai, Tamil Nadu 600026, India",ChIJa80iAOtmUjoRVss_YGmMnB0,"College campus, Thirunagar (Ambica Empire Hotel), Chennai"
New Avadi Road Water Tank,11,stop1,New Avadi Road Water Tank,13.0957003,80.2213611,13.095700299999999,80.2213611,"New Avadi Rd, Chennai, Tamil Nadu, India",ChIJ6XjqZRVkUjoRuVycbMuVnpQ,"New Avadi Road Water Tank, New Avadi Road Water Tank, Chennai"
New Avadi Road Water Tank,11,stop2,Gangaiamman koil,13.0891682,80.229844,13.08925081391552,80.22988658500056,"96, Gujji Main Rd, Kumaran Nagar, Kilpauk, Chennai, Tamil Nadu 600102, India",ChIJRZNQS3FlUjoRzuNitqjR00o,"Gangaiamman koil, New Avadi Road Water Tank, Chennai"
New Avadi Road Water Tank,11,stop3,Lotus Colony,13.0922633,80.22249099999999,13.092086284148202,80.22248120972424,"Lotus colony, N Block, Annanagar East, Chennai, Tamil Nadu 600102, India",ChIJ-y6zegBlUjoRjzSAEfP71D8,"Lotus Colony, New Avadi Road Water Tank, Chennai"
New Avadi Road Water Tank,11,stop4,14- Shop,13.0828802,80.2269476,13.082887699239262,80.22706298062923,"Shop No 4, Cement Road, next to Hap Daily Arokya Milk, Tamilar Nagar, KVN Puram, Shenoy Nagar, Chennai, Tamil Nadu 600030, India",ChIJ57_yLipkUjoRY0KcyxCnbqk,"14- Shop, New Avadi Road Water Tank, Chennai"
New Avadi Road Water Tank,11,stop5,Kandasamy College,13.0855509,80.2183376,13.085557635856556,80.21812385137828,"E7, 3rd Ave, Block E, Annanagar East, Chennai, Tamil Nadu 600102, India",ChIJExXDeSZkUjoRqaOvNTq6arw,"Kandasamy College, New Avadi Road Water Tank, Chennai"
New Avadi Road Water Tank,11,stop6,Nalli Silks,13.0845526,80.2155027,13.08455386265543,80.21541876234627,"13, 2nd Ave, Lapis lagoon, AA Block, Shanthi Colony, Anna Nagar, Chennai, Tamil Nadu 600040, India",ChIJ9TxYtCZkUjoRZI-GS5LhiE0,"Nalli Silks, New Avadi Road Water Tank, Chennai"
New Avadi Road Water Tank,11,stop7,Ayyappan Temple,13.0851268,80.21313649999999,13.085137691442107,80.21295396153032,"C-45, 2 nd Avenue Road, X42, 6th Main Rd, Opposite Annanagar Visveswaraya Tower Park, Opposite KHM Hospital, X Block, Y Block, Anna Nagar, Chennai, Tamil Nadu 600040, India",ChIJX-CoeyFkUjoRtmVPJqmE_a4,"Ayyappan Temple, New Avadi Road Water Tank, Chennai"
New Avadi Road Water Tank,11,stop8,Blue star,13.0887715,80.2253319,13.088777983370367,80.22529768430788,"36QG+G44, 1st Ave, R.V. Nagar, Thiruvalluvar Nagar, Kilpauk Garden Colony, Kilpauk, Chennai, Tamil Nadu 600102, India",ChIJ9fvzii5kUjoRuH0RJUOaRXw,"Blue star, New Avadi Road Water Tank, Chennai"
New Avadi Road Water Tank,11,stop9,Tower Park Metro Station,13.0863811,80.2153391,13.086374275219022,80.21549237186126,"36P8+H44 Tower Park, Unnamed Road, X Block, Tower Park, Anna Nagar, Chennai, Tamil Nadu 600040, India",ChIJ-YzF5CNkUjoR7de2hm2mFtc,"Tower Park Metro Station, New Avadi Road Water Tank, Chennai"
New Avadi Road Water Tank,11,stop10,Santhosh Super Market,13.0849031,80.2059474,13.0850516356087,80.20595467667181,"C33, 2nd Ave, near 11th Main Road, A E Block, Block AE, Anna Nagar, Chennai, Tamil Nadu 600040, India",ChIJRbvlCRxkUjoRk8R8e3oSyek,"Santhosh Super Market, New Avadi Road Water Tank, Chennai"
New Avadi Road Water Tank,11,stop11,Hot chips,13.0965622,80.201461,13.096544744116834,80.20161052013304,"36, Tirumangalam Rd, Navalar Nagar, Kambar Colony, I Block, Anna Nagar, Chennai, Tamil Nadu 600040, India",ChIJSQtsfxFkUjoRlT-Z8rf-o7I,"Hot chips, New Avadi Road Water Tank, Chennai"
New Avadi Road Water Tank,11,stop12,Senthil Nursing Home,13.0957003,80.2213611,13.095700299999999,80.2213611,"New Avadi Rd, Chennai, Tamil Nadu, India",ChIJ6XjqZRVkUjoRuVycbMuVnpQ,"Senthil Nursing Home, New Avadi Road Water Tank, Chennai"
New Avadi Road Water Tank,11,stop13,CPWD Quarters,13.0957003,80.2213611,13.095700299999999,80.2213611,"New Avadi Rd, Chennai, Tamil Nadu, India",ChIJ6XjqZRVkUjoRuVycbMuVnpQ,"CPWD Quarters, New Avadi Road Water Tank, Chennai"
Anna Nagar East,12,stop1,Anna Nagar RTO Office,13.095227,80.222464,13.095282826898451,80.22248488508312,"R.T.O. Office, Annai Sathya Nagar, Annanagar East, Chennai, Tamil Nadu 600102, India",ChIJsQyr8jBkUjoRnN4ipVnIVn0,"Anna Nagar RTO Office, Anna Nagar East, Chennai"
Anna Nagar East,12,stop2,Anna Nagar East 1st Avenue,13.0892506,80.2236005,13.0892506,80.2236005,"1st Ave, Annanagar East, Chennai, Tamil Nadu, India",EjMxc3QgQXZlLCBBbm5hbmFnYXIgRWFzdCwgQ2hlbm5haSwgVGFtaWwgTmFkdSwgSW5kaWEiLiosChQKEgnncjIAL2RSOhH-dEqj8pEFnhIUChIJi-uxhthlUjoRI9iqOkDB4M4,"Anna Nagar East 1st Avenue, Anna Nagar East, Chennai"
Anna Nagar East,12,stop3,Anna Nagar East 6th Avenue,13.0921611,80.2203324,13.0921611,80.2203324,"6th Ave, Annanagar East, Chennai, Tamil Nadu, India",EjM2dGggQXZlLCBBbm5hbmFnYXIgRWFzdCwgQ2hlbm5haSwgVGFtaWwgTmFkdSwgSW5kaWEiLiosChQKEgkzlolAPWRSOhEUtQiZrQYh4BIUChIJi-uxhthlUjoRI9iqOkDB4M4,"Anna Nagar East 6th Avenue, Anna Nagar East, Chennai"
Anna Nagar East,12,stop4,Chennai Mobiles,13.0920831,80.2184529,13.092145023711163,80.2184115389814,"90, 3rd Ave, J Block, Anna Nagar, Chennai, Tamil Nadu 600102, India",ChIJtXdHCbllUjoRpo6jYMj-vWw,"Chennai Mobiles, Anna Nagar East, Chennai"
Anna Nagar East,12,stop5,Kovai Palamuthircholai,13.0816154,80.2453396,13.081625274182347,80.24520534603174,"36JW+J4W, Ormes Rd, Kilpauk, Chennai, Tamil Nadu 600010, India",ChIJ-XGjcNhlUjoRG6Raw3M0t68,"Kovai Palamuthircholai, Anna Nagar East, Chennai"
Anna Nagar East,12,stop6,Akshyam Hotel,13.051144,80.21750329999999,13.05114006910045,80.21767446977398,"81, Arcot Rd, New Colony, Thalaiyari Palaiyam, Valasaravakkam, Chennai, Tamil Nadu 600093, India",ChIJjVdIlJNnUjoRwRnyRdGmfAE,"Akshyam Hotel, Anna Nagar East, Chennai"
Anna Nagar East,12,stop7,Nuts Piczs,13.0920485,80.2236102,13.092019380364995,80.22360796169453,"Annanagar East, Chennai, Tamil Nadu, India",ChIJi-uxhthlUjoRI9iqOkDB4M4,"Nuts Piczs, Anna Nagar East, Chennai"
Anna Nagar East,12,stop8,SBI Bank - 6th Avenue,13.0921611,80.2203324,13.0921611,80.2203324,"6th Ave, Annanagar East, Chennai, Tamil Nadu, India",EjM2dGggQXZlLCBBbm5hbmFnYXIgRWFzdCwgQ2hlbm5haSwgVGFtaWwgTmFkdSwgSW5kaWEiLiosChQKEgkzlolAPWRSOhEUtQiZrQYh4BIUChIJi-uxhthlUjoRI9iqOkDB4M4,"SBI Bank - 6th Avenue, Anna Nagar East, Chennai"
Anna Nagar East,12,stop9,Bata Show Room,13.0406331,80.237116,13.040782881027436,80.2371367667997,"46, Sir Thyagaraya Rd, near Pondy Bazar, Pondy Bazaar, T. Nagar, Chennai, Tamil Nadu 600017, India",ChIJvQ7Yz1NmUjoRY9nYL739INU,"Bata Show Room, Anna Nagar East, Chennai"
Anna Nagar East,12,stop10,Vijaya Maruthi,13.092746,80.206783,13.092668403353098,80.20677999525923,"Vijaya Maruthi (Anna Nagar), P Block, Vasantham Colony, Anna Nagar, Chennai, Tamil Nadu 600040, India",ChIJoxFWoBdkUjoRfTszcSUaMLg,"Vijaya Maruthi, Anna Nagar East, Chennai"
Anna Nagar East,12,stop11,Reliance Fresh,13.0920485,80.2236102,13.092019380364995,80.22360796169453,"Annanagar East, Chennai, Tamil Nadu, India",ChIJi-uxhthlUjoRI9iqOkDB4M4,"Reliance Fresh, Anna Nagar East, Chennai"
Krishna Nagar (Vellammal School),13,stop1,Vellammal School,13.0508774,80.1690222,13.051027746238791,80.16902507571966,"Sri Krishna Nagar, Maduradoyal, Chennai, Tamil Nadu, 600095, Sri Krishna Nagar, Alapakkam, Porur, Chennai, Tamil Nadu, India",ChIJi37DYz5hUjoR91U5BDGZs1g,"Vellammal School, Krishna Nagar (Vellammal School), Chennai"
Krishna Nagar (Vellammal School),13,stop2,Golden flats,13.0508774,80.1690222,13.051027746238791,80.16902507571966,"Sri Krishna Nagar, Maduradoyal, Chennai, Tamil Nadu, 600095, Sri Krishna Nagar, Alapakkam, Porur, Chennai, Tamil Nadu, India",ChIJi37DYz5hUjoR91U5BDGZs1g,"Golden flats, Krishna Nagar (Vellammal School), Chennai"
Thriumangalam,14,stop1,Thriumangalam EB Bus Stop,13.087081,80.1979442,13.087151247215058,80.1979475318283,"Thirumangalam EB Office, Ambattur Estate Rd, Gaingaiammaannagar, Natarajan Nagar, Thirumangalam, Chennai, Tamil Nadu 600050, India",ChIJwZOrxARkUjoRBQeQtNNwaS4,"Thriumangalam EB Bus Stop, Thriumangalam, Chennai"
Thriumangalam,14,stop2,Collector nagar,13.0865328,80.1892501,13.086597849742963,80.18926615177448,"Collector Nagar, J J Nagar, Mogappair East, Chennai, Tamil Nadu, India",ChIJIz5EbwdkUjoRt9SBM_xU4ag,"Collector nagar, Thriumangalam, Chennai"
Thriumangalam,14,stop3,TSK Nagar,13.083528,80.1944807,13.083553910750112,80.19449034903914,"Thirumangalam, Chennai, Tamil Nadu, India",ChIJX0xEyANkUjoR4I6IMdKodQY,"TSK Nagar, Thriumangalam, Chennai"
SIDCO Villivakkam,15,stop1,SIDCO Villivakkam,13.1043118,80.1979676,13.103745880249171,80.19821942840905,"Sidco Industrial Estate, Villivakkam, Chennai, Tamil Nadu 600049, India",ChIJ6Ry6e21kUjoR0IFep7Grjuo,"SIDCO Villivakkam, SIDCO Villivakkam, Chennai"
SIDCO Villivakkam,15,stop2,Singarampillai School,13.1035773,80.2000327,13.103339060884078,80.20006177940586,"Chennai Tiruvallur High Road, Sidco Industrial Estate, Villivakkam, Sidco Industrial Estate, Villivakkam, Chennai, Tamil Nadu 600049, India",ChIJPSCzP21kUjoR53REFv2nSnE,"Singarampillai School, SIDCO Villivakkam, Chennai"
SIDCO Villivakkam,15,stop3,Anbu Colony,13.1043118,80.1979676,13.103745880249171,80.19821942840905,"Sidco Industrial Estate, Villivakkam, Chennai, Tamil Nadu 600049, India",ChIJ6Ry6e21kUjoR0IFep7Grjuo,"Anbu Colony, SIDCO Villivakkam, Chennai"
SIDCO Villivakkam,15,stop4,Anna Nagar West Depot,13.1043118,80.1979676,13.103745880249171,80.19821942840905,"Sidco Industrial Estate, Villivakkam, Chennai, Tamil Nadu 600049, India",ChIJ6Ry6e21kUjoR0IFep7Grjuo,"Anna Nagar West Depot, SIDCO Villivakkam, Chennai"
Waves,16,stop1,Waves,13.0823732,80.21731590000002,13.082271043071321,80.21731198328652,"2/142, AA Block, Shanthi Colony, Anna Nagar, Chennai, Tamil Nadu 600040, India",ChIJqX--ViBkUjoRp7xNIk-KhNc,"Waves, Waves, Chennai"
Waves,16,stop2,V3 JJ Nagar Police Booth,13.0823732,80.21731590000002,13.082271043071321,80.21731198328652,"2/142, AA Block, Shanthi Colony, Anna Nagar, Chennai, Tamil Nadu 600040, India",ChIJqX--ViBkUjoRp7xNIk-KhNc,"V3 JJ Nagar Police Booth, Waves, Chennai"
Waves,16,stop3,Water Tank,13.0823732,80.21731590000002,13.082271043071321,80.21731198328652,"2/142, AA Block, Shanthi Colony, Anna Nagar, Chennai, Tamil Nadu 600040, India",ChIJqX--ViBkUjoRp7xNIk-KhNc,"Water Tank, Waves, Chennai"
Waves,16,stop4,IOB Mogappair East,13.0823732,80.21731590000002,13.082271043071321,80.21731198328652,"2/142, AA Block, Shanthi Colony, Anna Nagar, Chennai, Tamil Nadu 600040, India",ChIJqX--ViBkUjoRp7xNIk-KhNc,"IOB Mogappair East, Waves, Chennai"
Mogappair East,17,stop1,Spartan school,13.0825029,80.1806647,13.0824264,80.1806161,"11th block, Bharathidasan Salai, Block 11, J J Nagar, Mogappair East, Chennai, Tamil Nadu 600037, India",ChIJ9QblOPxjUjoRtz31Gb4qlaY,"Spartan school, Mogappair East, Chennai"
Mogappair East,17,stop2,Mogappair East Bus Stop (7H),13.085986,80.18227,13.085946103882629,80.18214719643777,"2/7, TS Krishna Nagar, J J Nagar, Mogappair East, Chennai, Tamil Nadu 600050, India",ChIJi-e0YPljUjoRz1ng875uaqk,"Mogappair East Bus Stop (7H), Mogappair East, Chennai"
Mogappair (Golden Flat),18,stop1,SBI,13.0880992,80.179099,13.088149146136615,80.1790992624248,"Golden Flat, Mogappair, Chennai, Tamil Nadu 600050, India",ChIJfx-k9vpjUjoRvXfWi5LKDHY,"SBI, Mogappair (Golden Flat), Chennai"
Mogappair (Golden Flat),18,stop2,Greater Chennai corporation park,13.0822248,80.17715450000001,13.082214457321554,80.1770960300045,"Greater Chennai Corporation Park - VGP Nagar, 50/22, Venugopal St, near Varun Apartment, VGP Nagar, Mogappair, Chennai, Tamil Nadu 600037, India",ChIJR-4mmYxjUjoRBlnvi1ehVps,"Greater Chennai corporation park, Mogappair (Golden Flat), Chennai"
Mogappair (Golden Flat),18,stop3,VGN Service Road,13.0746937,80.1613728,13.074693699999997,80.1613728,"Service Rd, Chennai, Tamil Nadu, India",ChIJN6qwFmlhUjoRpFljeHhMtEg,"VGN Service Road, Mogappair (Golden Flat), Chennai"
Mogappair (Golden Flat),18,stop4,MGR University,13.0685662,80.17823,13.0685662,80.17823,"MGR University Rd, Maduravoyal, Chennai, Tamil Nadu 600095, India",ChIJ8bkbR1BhUjoR-7M5UIJnXPw,"MGR University, Mogappair (Golden Flat), Chennai"
Mogappairt,19,stop1,Grace Super Market,13.0785923,80.1805661,13.078440449552016,80.18061626834103,"No.A10 & B8, 10, Church Rd, Mogappair Industrial Estate, Paneer Nagar, Mogappair East, Chennai, Tamil Nadu 600037, India",ChIJi401i3lhUjoReYZdq9pvmo8,"Grace Super Market, Mogappairt, Chennai"
Mogappairt,19,stop2,Ambedkar Ground,13.0776883,80.1785187,13.078019765309158,80.17847906276451,"Mogappair Eri Scheme, Mogappair East, Chennai, Tamil Nadu 600037, India",ChIJEWVrz1dhUjoR-cfAwM2iPV0,"Ambedkar Ground, Mogappairt, Chennai"
Mogappairt,19,stop3,Velammal School (Mogappair West),13.0790083,80.1751505,13.078763258630357,80.17522432027994,"Block No, 7, 1st Main Rd, Mogappair West, Mogappair East, Chennai, Tamil Nadu 600037, India",ChIJAWwCo-JjUjoRHQCI3fTWCco,"Velammal School (Mogappair West), Mogappairt, Chennai"
Mogappairt,19,stop4,Mogappair Water Tank Road,13.0687657,80.2153218,13.068765700000002,80.2153218,"Water Tank Rd, Chennai, Tamil Nadu, India",ChIJR2bm95lmUjoRGFzUFJFAols,"Mogappair Water Tank Road, Mogappairt, Chennai"
Mogappairt,19,stop5,(7M) Amutha Matri. School,13.0822908,80.16955209999999,13.082372920420264,80.16952995647975,"35J9+WR7, 1st Ave, 4th Block, Mogappair West, Mogappair, Chennai, Tamil Nadu 600037, India",ChIJb3kfquFjUjoRb0-G6aP37RA,"(7M) Amutha Matri. School, Mogappairt, Chennai"
Mogappair West,20,stop1,DRJ Super Market,13.0805983,80.1687714,13.08050771675974,80.16880235484757,"Mogappair West, Ambattur Industrial Estate, Chennai, Tamil Nadu, India",ChIJlcrqP-JjUjoRDY_tpN7ycaM,"DRJ Super Market, Mogappair West, Chennai"
Vyasarpadi (Erikarai),21,stop1,Vyasarpadi (Erikarai),13.113897,80.26056299999999,13.113852574964664,80.26056896735034,"Vyasarpadi Erikarai, Sathyamurthi Nagar, Nagammai Nagar, Vyasarpadi, Chennai, Tamil Nadu 600039, India",ChIJ77DJz5BlUjoREiMGLIwiFl8,"Vyasarpadi (Erikarai), Vyasarpadi (Erikarai), Chennai"
Vyasarpadi (Erikarai),21,stop2,Jeeva Station,13.109009,80.25511,13.109036954743175,80.25510623531612,"Vyasarpadi Jeeva railway station, Kasturi Bai Gandhi Nagar, Vyasarpadi, Chennai, Tamil Nadu 600039, India",ChIJHU6S6ZVlUjoRMf1sAOEyZac,"Jeeva Station, Vyasarpadi (Erikarai), Chennai"
Vyasarpadi (Erikarai),21,stop3,Binny mill Corner,13.102585,80.25271599999999,13.10259428083612,80.25268619824753,"Binny Mill, Shanthi Nagar, Buckingham Carnatic Mills, Jamalia, Chennai, Tamil Nadu 600012, India",ChIJW5gQRMBlUjoRqQSZpsvVfZk,"Binny mill Corner, Vyasarpadi (Erikarai), Chennai"
Vyasarpadi (Erikarai),21,stop4,Otteri,13.113897,80.26056299999999,13.113852574964664,80.26056896735034,"Vyasarpadi Erikarai, Sathyamurthi Nagar, Nagammai Nagar, Vyasarpadi, Chennai, Tamil Nadu 600039, India",ChIJ77DJz5BlUjoREiMGLIwiFl8,"Otteri, Vyasarpadi (Erikarai), Chennai"
Vyasarpadi (Erikarai),21,stop5,Podikadai Bus Stop,13.0972958,80.24866089999999,13.09736603065138,80.24864331020707,"Podi Kadai, Otteri, Egankipuram 2nd St, TNHB Colony, Purasaiwakkam, Chennai, Tamil Nadu 600012, India",ChIJPeVGEsRlUjoRKXBFW7byWLY,"Podikadai Bus Stop, Vyasarpadi (Erikarai), Chennai"
Vyasarpadi (Erikarai),21,stop6,TP Hospital,13.0971025,80.2443612,13.097044222875219,80.24435364346759,"36WV+RPX, Konnur High Rd, Otteri, Ayanavaram, Chennai, Tamil Nadu 600012, India",ChIJS8-NyMVlUjoRSaMJpLE8tm8,"TP Hospital, Vyasarpadi (Erikarai), Chennai"
Vyasarpadi (Erikarai),21,stop7,Ayanavaram - Indian Bank,13.0976374,80.23906819999999,13.09774727202601,80.23907667849284,"36XQ+3J4, KV Kovil Agraharam St, Vasantha nagar, Chinna Chembarambakkam, Ayanavaram, Chennai, Tamil Nadu 600023, India",ChIJGfwQK89lUjoRnINNULrciEc,"Ayanavaram - Indian Bank, Vyasarpadi (Erikarai), Chennai"
Vyasarpadi (Erikarai),21,stop8,Sayani Theatre,13.097794,80.239926,13.097738594154075,80.23992193784906,"Sayani Theatre, Vasantha nagar, Chinna Chembarambakkam, Ayanavaram, Chennai, Tamil Nadu 600023, India",ChIJpYD1Kc9lUjoRc_ZDI2ETlG4,"Sayani Theatre, Vyasarpadi (Erikarai), Chennai"
Binny Mill Church,22,stop1,Jamalia School,13.102585,80.25271599999999,13.10259428083612,80.25268619824753,"Binny Mill, Shanthi Nagar, Buckingham Carnatic Mills, Jamalia, Chennai, Tamil Nadu 600012, India",ChIJW5gQRMBlUjoRqQSZpsvVfZk,"Jamalia School, Binny Mill Church, Chennai"
Binny Mill Church,22,stop2,Binny Mill Church,13.1022282,80.2600243,13.102162013837262,80.25996848270647,"Stephenson Rd, Buckingham Carnatic Mills, Perambur, Chennai, Tamil Nadu 600012, India",ChIJ69xMGY5lUjoRDlz_u3AqAlo,"Binny Mill Church, Binny Mill Church, Chennai"
Binny Mill Church,22,stop3,Noor Hotel,13.098415,80.234931,13.09844174903407,80.23493418664772,"Noor Hotel, Ayanavaram Road, V.P.Colony, Ayanavaram, Chennai, Tamil Nadu 600023, India",ChIJy5jGectlUjoRLIQSHApFZMk,"Noor Hotel, Binny Mill Church, Chennai"
Binny Mill Church,22,stop4,Joint Office,13.099718,80.229782,13.099752473927587,80.22979089712796,"Joint Office, Ayanavaram Rd, United India Nagar, Ayanavaram, Chennai, Tamil Nadu 600023, India",ChIJcwdD6TRkUjoRFZCFIYJvpa0,"Joint Office, Binny Mill Church, Chennai"
Binny Mill Church,22,stop5,Arisi mandi,13.102585,80.25271599999999,13.10259428083612,80.25268619824753,"Binny Mill, Shanthi Nagar, Buckingham Carnatic Mills, Jamalia, Chennai, Tamil Nadu 600012, India",ChIJW5gQRMBlUjoRqQSZpsvVfZk,"Arisi mandi, Binny Mill Church, Chennai"
Binny Mill Church,22,stop6,Kambar Arangam,13.0986274,80.2173956,13.098780617429545,80.21743491891476,"Kambar Arangam, 22/2, 2nd Street, opposite Dr.Ambedkar Auditorium, ICF East Colony, Konnur, Chennai, Tamil Nadu 600038, India",ChIJD4IfXMllUjoRC1CmzXFVcXY,"Kambar Arangam, Binny Mill Church, Chennai"
Binny Mill Church,22,stop7,ICF Signal,13.099983,80.214456,13.09997835768005,80.21447427167013,"I.C.F., ICF West Colony, Konnur, Chennai, Tamil Nadu 600038, India",ChIJ42ZF3D5kUjoRJ5QfIS7NjZI,"ICF Signal, Binny Mill Church, Chennai"
Binny Mill Church,22,stop8,Kallukadai Bus Stop,13.102585,80.25271599999999,13.10259428083612,80.25268619824753,"Binny Mill, Shanthi Nagar, Buckingham Carnatic Mills, Jamalia, Chennai, Tamil Nadu 600012, India",ChIJW5gQRMBlUjoRqQSZpsvVfZk,"Kallukadai Bus Stop, Binny Mill Church, Chennai"
Binny Mill Church,22,stop9,Villivakkam Kalpana Hotel,13.102766,80.208668,13.102823247036442,80.20868709345861,"Kalpana Hotel, Villivakkam, Chennai, Tamil Nadu 600049, India",ChIJq-p0ympkUjoRndlDnLKzPIk,"Villivakkam Kalpana Hotel, Binny Mill Church, Chennai"
Binny Mill Church,22,stop10,Nadhamuni Theatre,13.1032371,80.2022558,13.103238804531747,80.20214006913258,"4632+7WR, Madras Thiruvallur High Rd, Thiru Nagar, Villivakkam, Chennai, Tamil Nadu 600049, India",ChIJ0-t4w2xkUjoRJrDTghZf54g,"Nadhamuni Theatre, Binny Mill Church, Chennai"
Moolakadai,23,stop1,Erukkancheri ABR kalyana Mandapam,13.1277921,80.24390100000001,13.127745747968135,80.24388279770992,"15B, Grand Northern Trunk Rd, Erukkanchery, Nehru Nagar, Kodungaiyur, Chennai, Tamil Nadu 600118, India",ChIJgWJATQBlUjoR7aJ1yD722Gg,"Erukkancheri ABR kalyana Mandapam, Moolakadai, Chennai"
Moolakadai,23,stop2,Erukkancheri - Rajalakshmi Cars Showroom,13.1248237,80.2471242,13.124745213370263,80.24704914553254,"No. 173, Erukkenchery High Rd, Kumar Nagar, Moolakadai, Kodungaiyur, Chennai, Tamil Nadu 600118, India",ChIJw9HuGKdlUjoRaLJ_HjI8Gd8,"Erukkancheri - Rajalakshmi Cars Showroom, Moolakadai, Chennai"
Moolakadai,23,stop3,Moolakadai,13.1295676,80.2416298,13.129566521150474,80.2416465682684,"Moolakadai, Kodungaiyur, Chennai, Tamil Nadu, India",ChIJu6fj8gZlUjoRdvEHAg4L3EY,"Moolakadai, Moolakadai, Chennai"
Moolakadai,23,stop4,M1.Police Station,13.1313801,80.237884,13.131488300477073,80.23796639454571,"Madhavaram High Road, 46JQ+H52, Kanakan Chatram, Ponniammanmedu, Thiruvallur, Chennai, Tamil Nadu 600110, India",ChIJtUVfmt5kUjoREmVoz7DHd30,"M1.Police Station, Moolakadai, Chennai"
Moolakadai,23,stop5,Kanakan chatram (Shell Petrol Bunk),13.1295676,80.2416298,13.129566521150474,80.2416465682684,"Moolakadai, Kodungaiyur, Chennai, Tamil Nadu, India",ChIJu6fj8gZlUjoRdvEHAg4L3EY,"Kanakan chatram (Shell Petrol Bunk), Moolakadai, Chennai"
Moolakadai,23,stop6,Kalpana Lamps,13.1295676,80.2416298,13.129566521150474,80.2416465682684,"Moolakadai, Kodungaiyur, Chennai, Tamil Nadu, India",ChIJu6fj8gZlUjoRdvEHAg4L3EY,"Kalpana Lamps, Moolakadai, Chennai"
Moolakadai,23,stop7,Madavaram Andhra Bus Stand,13.1295676,80.2416298,13.129566521150474,80.2416465682684,"Moolakadai, Kodungaiyur, Chennai, Tamil Nadu, India",ChIJu6fj8gZlUjoRdvEHAg4L3EY,"Madavaram Andhra Bus Stand, Moolakadai, Chennai"
Moolakadai,23,stop8,Retteri RTO Office,13.1295676,80.2416298,13.129566521150474,80.2416465682684,"Moolakadai, Kodungaiyur, Chennai, Tamil Nadu, India",ChIJu6fj8gZlUjoRdvEHAg4L3EY,"Retteri RTO Office, Moolakadai, Chennai"
Korattur,24,stop1,Korattur Police Station,13.1072152,80.18674519999999,13.107226940626388,80.18664125900906,"454P+VMQ, E Ave Rd, TNHB Colony, TVS Industries, Korattur, Chennai, Tamil Nadu 600050, India",ChIJ3QCpAopjUjoRYfh3tl6pAyo,"Korattur Police Station, Korattur, Chennai"
Korattur,24,stop2,Bakthavatchlam School Signal,13.1090805,80.18297299999999,13.109105912441576,80.18246659561872,"BAKTHAVACHALAM VIDHYASHRAM SCHOOL, Venkatraman Nagar, Korattur, Chennai, Tamil Nadu 600050, India",ChIJ1c0HPIljUjoR2hWXua0mvfM,"Bakthavatchlam School Signal, Korattur, Chennai"
Korattur,24,stop3,Church,13.1220617,80.2110781,13.122003988173757,80.21107235381174,"C-38, Durga Colony, Kolathur, Chennai, Tamil Nadu 600099, India",ChIJVxKsHRhlUjoRKIyJ4W8Rxck,"Church, Korattur, Chennai"
MKB. Nagar,25,stop1,MKB Nagar,13.1231079,80.2614037,13.122903940859024,80.26139711626836,"MKB Nagar, Mahakavi Bharathi Nagar, Vyasarpadi, Chennai, Tamil Nadu 600039, India",ChIJgWz_N5xlUjoRzeZ5A5CKHSA,"MKB Nagar, MKB. Nagar, Chennai"
MKB. Nagar,25,stop2,KKD Nagar,13.1258413,80.262221,13.125962017816537,80.26222274904421,"Mahakavi Bharathi Nagar, Vyasarpadi, Chennai, Tamil Nadu, India",ChIJ62REgZtlUjoRx34_mPeiico,"KKD Nagar, MKB. Nagar, Chennai"
MKB. Nagar,25,stop3,MR Nagar,13.1231079,80.2614037,13.122903940859024,80.26139711626836,"MKB Nagar, Mahakavi Bharathi Nagar, Vyasarpadi, Chennai, Tamil Nadu 600039, India",ChIJgWz_N5xlUjoRzeZ5A5CKHSA,"MR Nagar, MKB. Nagar, Chennai"
MKB. Nagar,25,stop4,Pavithra Hospital,13.1261096,80.2491749,13.126107644307165,80.24918155796445,"Melpatti Ponnappa Street, Santhi Nagar, Vyasar Nagar Colony, Perambur, Chennai, Tamil Nadu 600118, India",ChIJL8IbUC17UjoRI4U2lrERWF0,"Pavithra Hospital, MKB. Nagar, Chennai"
Erukkanchery,26,stop1,Erukkanchery,13.1272359,80.2533608,13.12739293365577,80.25324680169341,"Erukkanchery, Thiruvalluvar Nagar, Kodungaiyur, Chennai, Tamil Nadu 600118, India",ChIJcw7engplUjoRG_aSF4F4ppg,"Erukkanchery, Erukkanchery, Chennai"
Erukkanchery,26,stop2,Madhavaram rountana,13.1272359,80.2533608,13.12739293365577,80.25324680169341,"Erukkanchery, Thiruvalluvar Nagar, Kodungaiyur, Chennai, Tamil Nadu 600118, India",ChIJcw7engplUjoRG_aSF4F4ppg,"Madhavaram rountana, Erukkanchery, Chennai"
Erukkanchery,26,stop3,Retteri RTO Office,13.1272359,80.2533608,13.12739293365577,80.25324680169341,"Erukkanchery, Thiruvalluvar Nagar, Kodungaiyur, Chennai, Tamil Nadu 600118, India",ChIJcw7engplUjoRG_aSF4F4ppg,"Retteri RTO Office, Erukkanchery, Chennai"
Erukkanchery,26,stop4,Korattur police station,13.1072152,80.18674519999999,13.107226940626388,80.18664125900906,"454P+VMQ, E Ave Rd, TNHB Colony, TVS Industries, Korattur, Chennai, Tamil Nadu 600050, India",ChIJ3QCpAopjUjoRYfh3tl6pAyo,"Korattur police station, Erukkanchery, Chennai"
Erukkanchery,26,stop5,Ambattur Telephone Exchange,13.1272359,80.2533608,13.12739293365577,80.25324680169341,"Erukkanchery, Thiruvalluvar Nagar, Kodungaiyur, Chennai, Tamil Nadu 600118, India",ChIJcw7engplUjoRG_aSF4F4ppg,"Ambattur Telephone Exchange, Erukkanchery, Chennai"
Kolathur,27,stop1,Vyasarpadi Fire Service,13.1169719,80.2498164,13.116905199999998,80.2499729,"198, MPM Street, Bakthavatsalam Colony, Vyasarpadi, Chennai, Tamil Nadu 600039, India",ChIJbXXKLgBlUjoRC07-tdBsBas,"Vyasarpadi Fire Service, Kolathur, Chennai"
Kolathur,27,stop2,BB Road Junction,13.1143847,80.25276459999999,13.114384868236122,80.25275884457224,"Melpatti Ponnappa St, Kakanji Colony, Perambur, Chennai, Tamil Nadu 600011, India",ChIJVefB_JJlUjoRKrC-EQW_r_I,"BB Road Junction, Kolathur, Chennai"
Kolathur,27,stop3,Lakshmi amman Koil,13.1224059,80.2424774,13.122405899999997,80.2424774,"Lakshmi Amman Koil St, Chennai, Tamil Nadu, India",ChIJHYWz6bllUjoR2RY2vAoVPC8,"Lakshmi amman Koil, Kolathur, Chennai"
Kolathur,27,stop4,Brindha Theatre,13.119024,80.242679,13.119031350023988,80.24263055941834,"Brindha Theatre, Madhavaram, Ramana Nagar, Perambur, Chennai, Tamil Nadu 600011, India",ChIJBaJ4Za9lUjoRij7FToqXYoo,"Brindha Theatre, Kolathur, Chennai"
Kolathur,27,stop5,Welding Shop,13.123915,80.222236,13.123916127822673,80.2222024968722,"Welding Shop, Kolathur, Chennai, Tamil Nadu 600099, India",ChIJu-mtl1dkUjoRv8ohfP7tlVk,"Welding Shop, Kolathur, Chennai"
Perambur,28,stop1,BP Road,13.1210302,80.2325781,13.121024160553715,80.2326156108958,"Perambur, Chennai, Tamil Nadu, India",ChIJm6CRQgVlUjoR00h7rxzlbyc,"BP Road, Perambur, Chennai"
Perambur,28,stop2,Perambur Bus Depot,13.1085964,80.24808999999999,13.108597347137358,80.24808164637422,"465X+C6P, Perambur High Rd, Chinnaiyan Colony, Perambur, Chennai, Tamil Nadu 600012, India",ChIJG9EfObllUjoRXximYOA8S7A,"Perambur Bus Depot, Perambur, Chennai"
Perambur,28,stop3,Perambur Rly Station,13.1077308,80.244435,13.108035426511572,80.2446354414483,"Perambur, 32, 42/71, MKN Rd, Bunder Garden, Guindy, Chennai, Tamil Nadu 600016, India",ChIJeTTp1rllUjoRBHen-F6J798,"Perambur Rly Station, Perambur, Chennai"
Perambur,28,stop4,Perumbur Church,13.1097155,80.2414135,13.109932653058772,80.24154370594673,"Perambur Church, Perambur, Chennai, Tamil Nadu 600011, India",ChIJgTJYzLBlUjoRFuDGXPEFvuE,"Perumbur Church, Perambur, Chennai"
Perambur,28,stop5,Ajantha Bakers,13.1210302,80.2325781,13.121024160553715,80.2326156108958,"Perambur, Chennai, Tamil Nadu, India",ChIJm6CRQgVlUjoR00h7rxzlbyc,"Ajantha Bakers, Perambur, Chennai"
Perambur,28,stop6,Venus Bus Stop,13.1122045,80.23464229999999,13.112203133147707,80.2346607271652,"1, Ballard St, Agaram, Perambur, Chennai, Tamil Nadu 600082, India",ChIJOd71VwBlUjoRplNP_hljn6I,"Venus Bus Stop, Perambur, Chennai"
Perambur,28,stop7,Lakshmi Amman Koil (kolathur),13.1161644,80.2427881,13.116013377852939,80.2427679803605,"468V+F47, Ramana Nagar, Perambur, Chennai, Tamil Nadu 600011, India",ChIJi6gPf3xlUjoR1nz4XiJRHd4,"Lakshmi Amman Koil (kolathur), Perambur, Chennai"
Perambur,28,stop8,BPCL Petrol Bunk,13.125114,80.295542,13.125107719936585,80.29564964848922,"No.91,S.n chetty street,fishing harbour, Kasimedu, Royapuram, Chennai, Tamil Nadu 600013, India",ChIJr-GmRIhvUjoRyzsAiPKEAKo,"BPCL Petrol Bunk, Perambur, Chennai"
Peravallur,29,stop1,Peravalur,13.1178796,80.2316085,13.117913780781889,80.23144438494855,"Peravallur, Perambur, Chennai, Tamil Nadu, India",ChIJoc6q1lJkUjoR6dz6U1PwMhk,"Peravalur, Peravallur, Chennai"
Peravallur,29,stop2,Jawahar Nagar Bus Stop,13.1178796,80.2316085,13.117913780781889,80.23144438494855,"Peravallur, Perambur, Chennai, Tamil Nadu, India",ChIJoc6q1lJkUjoR6dz6U1PwMhk,"Jawahar Nagar Bus Stop, Peravallur, Chennai"
Peravallur,29,stop3,Axis Bank,13.1168442,80.23020300000002,13.11690841568604,80.2302407177416,"No 167, Peravallur, Perambur, Chennai, Tamil Nadu 600081, India",ChIJWZ4o995kUjoR-CdgzeQKTbs,"Axis Bank, Peravallur, Chennai"
Peravallur,29,stop4,Agaram BPCL Bunk,13.1162012,80.23155000000001,13.116158877036561,80.23152076805229,"Agaram, Peravallur, Perambur, Chennai, Tamil Nadu, India",ChIJCezGt1JkUjoRH6wptpoCgLg,"Agaram BPCL Bunk, Peravallur, Chennai"
Peravallur,29,stop5,Thiruvalluvar Kalyanamandabam,13.1178796,80.2316085,13.117913780781889,80.23144438494855,"Peravallur, Perambur, Chennai, Tamil Nadu, India",ChIJoc6q1lJkUjoR6dz6U1PwMhk,"Thiruvalluvar Kalyanamandabam, Peravallur, Chennai"
Peravallur,29,stop6,Periyar Nagar Vegetable market,13.1178796,80.2316085,13.117913780781889,80.23144438494855,"Peravallur, Perambur, Chennai, Tamil Nadu, India",ChIJoc6q1lJkUjoR6dz6U1PwMhk,"Periyar Nagar Vegetable market, Peravallur, Chennai"
Kolathur (Don Bosco School),30,stop1,Kolathur (Don Bosco School),13.1189858,80.2072457,13.11881200311674,80.20725331304364,"Kolathur Main Rd, Srinivasa Nagar, Kolathur, Chennai, Tamil Nadu 600099, India",ChIJZ5yX4GBkUjoR7OgYaetxt_8,"Kolathur (Don Bosco School), Kolathur (Don Bosco School), Chennai"
Kolathur (Don Bosco School),30,stop2,Retteri Junction,13.1366463,80.2203699,13.136696750971982,80.22036970572917,"46PC+M45, Grand Northern Trunk Rd, Munusamy Nagar, Kolathur, Chennai, Tamil Nadu 600099, India",ChIJ20ymBKxlUjoRJw-4-gRFBTI,"Retteri Junction, Kolathur (Don Bosco School), Chennai"
Kolathur (Don Bosco School),30,stop3,Saravana Store (Padi),13.0704208,80.25506159999999,13.07029948115206,80.2549109085487,"3794+R3M, 13, CASA Major Rd, Sulaiman Zackria Avenue, Egmore, Chennai, Tamil Nadu 600008, India",ChIJlTt4Yg5mUjoRHZ1eoHXv1js,"Saravana Store (Padi), Kolathur (Don Bosco School), Chennai"
Kolathur (Don Bosco School),30,stop4,Korattur Signal,13.118676,80.1985605,13.118675864701984,80.1985607673893,"459X+FCF, Palla St, Sivakami Nagar, Thathan Kuppam, Villivakkam, Chennai, Tamil Nadu 600099, India",ChIJv2gOtOhlUjoRgMRC9QPC7Fg,"Korattur Signal, Kolathur (Don Bosco School), Chennai"
Kolathur (Don Bosco School),30,stop5,Britannia,13.0704208,80.25506159999999,13.07029948115206,80.2549109085487,"3794+R3M, 13, CASA Major Rd, Sulaiman Zackria Avenue, Egmore, Chennai, Tamil Nadu 600008, India",ChIJlTt4Yg5mUjoRHZ1eoHXv1js,"Britannia, Kolathur (Don Bosco School), Chennai"
TVK Nagar,31,stop1,TVK Idugadu,13.119937,80.232524,13.11995838790265,80.23240389012946,"Thiru.Vi.Ka. Nagar, Tiru Vi Ka Nagar, Perambur, Chennai, Tamil Nadu 600011, India",ChIJ0Q_OraxlUjoR93oBOxuD_uQ,"TVK Idugadu, TVK Nagar, Chennai"
TVK Nagar,31,stop2,TVK Bus stand,13.1198567,80.2325773,13.119816604498803,80.23275152939203,"15th Street, 511, SRP Koil St N, Tiru Vi Ka Nagar, Perambur, Chennai, Tamil Nadu 600082, India",ChIJgWSQfaZlUjoRhLEF_7Vo9zs,"TVK Bus stand, TVK Nagar, Chennai"
TVK Nagar,31,stop3,Senthil Nagar,13.119938,80.2342226,13.119869729968384,80.23420963904469,"Tiru Vi Ka Nagar, Perambur, Chennai, Tamil Nadu, India",ChIJpXjllaxlUjoR5-Vkb77WBa4,"Senthil Nagar, TVK Nagar, Chennai"
Poombukar Nagar,32,stop1,SBI-Bank,13.1211176,80.21342489999999,13.121010389512467,80.21342368019889,"Poompuhar Nagar, Kolathur, Chennai, Tamil Nadu 600099, India",ChIJ190xAFxkUjoR22lM8PzkEO0,"SBI-Bank, Poombukar Nagar, Chennai"
Poombukar Nagar,32,stop2,Poombukar Nagar Post Office,13.1211176,80.21342489999999,13.121010389512467,80.21342368019889,"Poompuhar Nagar, Kolathur, Chennai, Tamil Nadu 600099, India",ChIJ190xAFxkUjoR22lM8PzkEO0,"Poombukar Nagar Post Office, Poombukar Nagar, Chennai"
Poombukar Nagar,32,stop3,Grace Super Market,13.1211176,80.21342489999999,13.121010389512467,80.21342368019889,"Poompuhar Nagar, Kolathur, Chennai, Tamil Nadu 600099, India",ChIJ190xAFxkUjoR22lM8PzkEO0,"Grace Super Market, Poombukar Nagar, Chennai"
Poombukar Nagar,32,stop4,Temple School,13.1250701,80.2056971,13.125022905105833,80.2055152155843,"46G4+27G, Jawaharlal Nehru Salai, Selvi Nagar, Kolathur, Chennai, Tamil Nadu 600099, India",ChIJs0mdMfdlUjoRjNfce0G5pmA,"Temple School, Poombukar Nagar, Chennai"
Minjur,33,stop1,Rice Mill,13.2695711,80.2632328,13.269625677082809,80.26322793469457,"7797+R7H, SH 104, Minjur, Tamil Nadu 601203, India",ChIJTxsAL_d5UjoRyT0nKsmXHFc,"Rice Mill, Minjur, Chennai"
Minjur,33,stop2,Kattur Koot Road,12.9230284,80.1868088,12.9230284,80.1868088,"Koot Rd, United Colony, Medavakkam, Chennai, Tamil Nadu 600100, India",ChIJ_xM9MJ5eUjoRpB6afBZE1g4,"Kattur Koot Road, Minjur, Chennai"
Minjur,33,stop3,Hemachandra Nagar,13.2758784,80.2607651,13.275867750693218,80.26083487974195,"Hemachandra Nagar, Minjur, Tamil Nadu 601203, India",ChIJUzuGGe55UjoRiSRMOFlTPqM,"Hemachandra Nagar, Minjur, Chennai"
Minjur,33,stop4,Pachaiyamman Koil Archi,13.2721287,80.2580337,13.2721287,80.2580337,"Pachai Amman Koil Road, Tamil Nadu 601203, India",ChIJrSSRxvN5UjoR-ieQTwK9KlE,"Pachaiyamman Koil Archi, Minjur, Chennai"
Minjur,33,stop5,Valluvar Nagar,13.2641152,80.26614479999999,13.26427536961047,80.26568056771725,"7778+JFR, Minjur New Town Rd, Minjur, Tamil Nadu 601203, India",ChIJjzLGbAB7UjoRtDXZfiAGrIE,"Valluvar Nagar, Minjur, Chennai"
Minjur,33,stop6,Patamanthri,13.2582341,80.278071,13.258210307878265,80.27814632690577,"Pattamandhri, Nandiambakkam, Tamil Nadu, India",ChIJyyqmsalwUjoRyVlCu03iuyg,"Patamanthri, Minjur, Chennai"
Minjur,33,stop7,Manali New Town,13.193283,80.2707953,13.193340114269146,80.27079535233028,"Manali New Town, Manali, Chennai, Tamil Nadu 600103, India",ChIJT3_QMp16UjoRTbcpD24SAKI,"Manali New Town, Minjur, Chennai"
Minjur,33,stop8,Vichoor,13.2005898,80.2377078,13.2005898,80.2377078,"Vichoor, Tamil Nadu, India",ChIJlaPVBeZ6UjoRlnyOPt0q93I,"Vichoor, Minjur, Chennai"
Minjur,33,stop9,Andarkuppam Check Post,13.192054,80.2698765,13.192053281444444,80.26982390034766,"Andarkuppam Check Post, SH 56, Vaikkadu, Manali New Town, Manali, Chennai, Tamil Nadu 600103, India",ChIJybM8v6N6UjoRLfmD9EcFIro,"Andarkuppam Check Post, Minjur, Chennai"
Minjur,33,stop10,Manjampakkam Ring Road,13.1551411,80.2224191,13.155119057712865,80.22242042749932,"Manjampakkam, Tamil Nadu, India",ChIJyefHadtkUjoRWz_OJmy_V6E,"Manjampakkam Ring Road, Minjur, Chennai"
Veterinary college (Mathur),34,stop1,Manali Market,13.1719994,80.25662009999999,13.17221082895653,80.25663791667908,"Manali Market, 18/39, Chinnamattur Rd, Cpcl Nagar, Apollo Armstrong Nagar, Mathur, Chennai, Tamil Nadu 600068, India",ChIJFbvP2kplUjoRsx_-1dcIfZ0,"Manali Market, Veterinary college (Mathur), Chennai"
Veterinary college (Mathur),34,stop2,Shastri nagar,13.1648007,80.25234429999999,13.164605964202956,80.25265782272365,"Shastri Nagar, Manali, Chennai, Tamil Nadu 600051, India",ChIJG_U50TdlUjoRa2WRHWIq7Zg,"Shastri nagar, Veterinary college (Mathur), Chennai"
Veterinary college (Mathur),34,stop3,Mathur 3rd Main Road,13.1706366,80.2496846,13.1706366,80.2496846,"3rd Main Rd, Mathur, Tamil Nadu 600068, India",ChIJ7zj0kDRlUjoRCMmIx01JA3g,"Mathur 3rd Main Road, Veterinary college (Mathur), Chennai"
Veterinary college (Mathur),34,stop4,Mathur 1st Main Road,13.169072,80.2407609,13.169072000000002,80.2407609,"Mathur Second Main Rd, Mathur, Tamil Nadu 600068, India",ChIJGQEeWyxlUjoRIH3_Xska3Jw,"Mathur 1st Main Road, Veterinary college (Mathur), Chennai"
Veterinary college (Mathur),34,stop5,Veterinary college,13.158582,80.244041,13.158581879418334,80.24395854106027,"Veterinary College, MMC Aavin Quarters, Madhavaram Milk Colony, Chennai, Tamil Nadu 600051, India",ChIJd8d-2jplUjoRSc_N4PlsLDo,"Veterinary college, Veterinary college (Mathur), Chennai"
Veterinary college (Mathur),34,stop6,Arul Nagar,13.1463254,80.24432940000001,13.146454499999999,80.2442938,"Arul Nagar, Madhavaram Milk Colony, Chennai, Tamil Nadu 600051, India",ChIJx0BedRdlUjoRlvTN-O9NJyA,"Arul Nagar, Veterinary college (Mathur), Chennai"
Veterinary college (Mathur),34,stop7,Thapalpetti,13.1414156,80.23701080000001,13.14157754861601,80.23699793735759,"Thapalpetti, Palaniappa Nagar, Madhavaram, Chennai, Tamil Nadu 600060, India",ChIJgTEkiBxlUjoRlUG0H3ijyPU,"Thapalpetti, Veterinary college (Mathur), Chennai"
Veterinary college (Mathur),34,stop8,Madhavaram Old Bus stand,13.158582,80.244041,13.158581879418334,80.24395854106027,"Veterinary College, MMC Aavin Quarters, Madhavaram Milk Colony, Chennai, Tamil Nadu 600051, India",ChIJd8d-2jplUjoRSc_N4PlsLDo,"Madhavaram Old Bus stand, Veterinary college (Mathur), Chennai"
Veterinary college (Mathur),34,stop9,Madhavaram New Bus stand,13.152167,80.22819899999999,13.15215996767289,80.22817634310914,"Madhavaram New, Natesan Nagar, Madhavaram, Chennai, Tamil Nadu 600060, India",ChIJQ7_T9d5kUjoRneTCeC_aXbM,"Madhavaram New Bus stand, Veterinary college (Mathur), Chennai"
Ayappakkam,35,stop1,Dunlop,13.099284,80.1389475,13.09924488552495,80.13894199850755,"M 15-16, TN HOUSING BOARD, 5, Ayyappakkam Main Rd, TNHB Colony, Annanur, Ayappakkam, Chennai, Tamil Nadu 600058, India",ChIJX4TtjTViUjoRE6cYcMT7lTk,"Dunlop, Ayappakkam, Chennai"
Ayappakkam,35,stop2,Canara Bank,13.0983046,80.13665110000001,13.09828361275489,80.13664957624216,"Ayappakkam, Chennai, Tamil Nadu, India",ChIJk5prZTdiUjoR1fRCxHB3WDc,"Canara Bank, Ayappakkam, Chennai"
Ayappakkam,35,stop3,Cake World - Ambattur,13.1202673,80.1491746,13.120272552473152,80.14905318655612,"413, Madras Thiruvallur High Rd, Secretariat Colony, Vivek Nagar, O.T, Ambattur, Chennai, Tamil Nadu 600053, India",ChIJ0zFXnaljUjoR_MTFB6Ae5vo,"Cake World - Ambattur, Ayappakkam, Chennai"
Ayappakkam,35,stop4,Murugappa Polytechnic,13.1259402,80.1173524,13.125905387190844,80.11761440022184,"44G8+9WH, Sathyamurthy Nagar, Avadi, Chennai, Tamil Nadu 600062, India",ChIJ8dAEwYtiUjoRgILafb041kg,"Murugappa Polytechnic, Ayappakkam, Chennai"
Ayappakkam Water Tank,36,stop1,Ayappakkam Water Tank,13.0988981,80.1327388,13.098824899999999,80.1327383,"Ayapakkam, TNHB Colony, Annanur, Ayappakkam, Chennai, Tamil Nadu 600077, India",ChIJARuW7zdiUjoR-F7KUCAm29A,"Ayappakkam Water Tank, Ayappakkam Water Tank, Chennai"
Ayappakkam Water Tank,36,stop2,VGN Platina,13.0940883,80.1264583,13.09411277555113,80.12646383285663,"VGN PLATINA, Ambigai Nagar, MGR Nagar, Ayappakkam, Chennai, Tamil Nadu 600077, India",ChIJhTxbUDliUjoRBUaI6b5vazo,"VGN Platina, Ayappakkam Water Tank, Chennai"
Ayappakkam Water Tank,36,stop3,Aparna Nagar,13.1009021,80.1275052,13.1009021,80.1275052,"Aparna Nagar, Annanur, Ambattur, Chennai, Tamil Nadu 600077, India",ChIJiwINSz9iUjoRgpvBtVCbyag,"Aparna Nagar, Ayappakkam Water Tank, Chennai"
Ayappakkam Water Tank,36,stop4,Shivan Koil,13.1089715,80.1325809,13.1089715,80.1325809,"Sivan Koil St, TNHB Colony, Annanur, Ayappakkam, Chennai, Tamil Nadu 600077, India",ChIJJdXZaEViUjoRhOEXf4wf7gI,"Shivan Koil, Ayappakkam Water Tank, Chennai"
Ayappakkam Water Tank,36,stop5,Koladi HP Petrol Bunk,13.0839218,80.13029689999999,13.083849199999998,80.1301479,"Koladi, Thiruverkadu, Chennai, Tamil Nadu, India",ChIJ1UQ3zCViUjoRTcmSYOxr7oM,"Koladi HP Petrol Bunk, Ayappakkam Water Tank, Chennai"
Ayappakkam Water Tank,36,stop6,Thiruverkadu Bus Stand,13.0695939,80.1240011,13.069602248764742,80.12387749182273,"349F+RJJ, Koladi Rd, Munusamy Nagar, Parasakthi Nagar, Thiruverkadu, Tamil Nadu 600077, India",ChIJIzvS0uBhUjoRwkBFBBOzan0,"Thiruverkadu Bus Stand, Ayappakkam Water Tank, Chennai"
Ayappakkam Water Tank,36,stop7,Pallavan Nagar,13.0983046,80.13665110000001,13.09828361275489,80.13664957624216,"Ayappakkam, Chennai, Tamil Nadu, India",ChIJk5prZTdiUjoR1fRCxHB3WDc,"Pallavan Nagar, Ayappakkam Water Tank, Chennai"
Ayappakkam Water Tank,36,stop8,VGN Mahalakshmi Appartments,13.052201,80.17900949999999,13.052276385856372,80.1790150510348,"352H+VJJ, Anbu Nagar 1st St, Radha Avenue, Sri Ram Nagar, Valasaravakkam, Chennai, Tamil Nadu 600087, India",ChIJ_eySdrFhUjoRCvHcz1Lpn_c,"VGN Mahalakshmi Appartments, Ayappakkam Water Tank, Chennai"
Ayappakkam Water Tank,36,stop9,Velapanchavadi Kendra Vihar Appartment,13.0988981,80.1327388,13.098824899999999,80.1327383,"Ayapakkam, TNHB Colony, Annanur, Ayappakkam, Chennai, Tamil Nadu 600077, India",ChIJARuW7zdiUjoR-F7KUCAm29A,"Velapanchavadi Kendra Vihar Appartment, Ayappakkam Water Tank, Chennai"
Thirumullaivoyal,37,stop1,Thirumullaivoyal,13.1314871,80.1363142,13.131535695043686,80.13626538435423,"44JP+HGW, Ambedkar Nagar, Thirumullaivoyal, Chennai, Tamil Nadu 600062, India",ChIJU_TISABjUjoR1xQ3As-TRsw,"Thirumullaivoyal, Thirumullaivoyal, Chennai"
Thirumullaivoyal,37,stop2,Vaishnawi Nagar,13.1275387,80.1257603,13.127555157497204,80.12572976370998,"Vaishnavi Nagar, Cholambedu, Chennai, Tamil Nadu 600062, India",ChIJt6IeE_RiUjoRz7IuvVSKflU,"Vaishnawi Nagar, Thirumullaivoyal, Chennai"
Thirumullaivoyal,37,stop3,Outer Ring Road bye Pass - Chokanallur,13.0477221,80.0844198,13.047722099999998,80.08441979999999,"Chennai Outer Ring Rd, Tamil Nadu, India",EihDaGVubmFpIE91dGVyIFJpbmcgUmQsIFRhbWlsIE5hZHUsIEluZGlhIi4qLAoUChIJqSiOfH2KUjoRAv_w3eCeDUUSFAoSCT_JzvzlYlI6Eb0PE3HmvUD2,"Outer Ring Road bye Pass - Chokanallur, Thirumullaivoyal, Chennai"
Ambattur OT,38,stop1,Singapore shopping,13.1214371,80.148208,13.121336669290702,80.14826208355001,"125, Chennai - Thiruttani - Renigunta Hwy, Vivek Nagar, Ram Nagar, Ambattur, Chennai, Tamil Nadu 600053, India",ChIJGRFa86ljUjoR9824mBUJ25U,"Singapore shopping, Ambattur OT, Chennai"
Ambattur OT,38,stop2,Anaikattucherry,13.1198456,80.1501107,13.11981118279253,80.15010503018091,"Ambattur O.T., N Park St, Secretariat Colony, Venkatapuram, Ambattur, Chennai, Tamil Nadu 600053, India",ChIJDVvADaljUjoR3dhCm-DqU_g,"Anaikattucherry, Ambattur OT, Chennai"
Ambattur OT,38,stop3,Sitharkadu,13.1198456,80.1501107,13.11981118279253,80.15010503018091,"Ambattur O.T., N Park St, Secretariat Colony, Venkatapuram, Ambattur, Chennai, Tamil Nadu 600053, India",ChIJDVvADaljUjoR3dhCm-DqU_g,"Sitharkadu, Ambattur OT, Chennai"
Ayappakkam Church (water tank),39,stop1,Ayappakkam church (water tank),13.0942463,80.1243902,13.094244998050508,80.12436884334791,"34VF+MQR, MGR Nagar, Ayappakkam, Chennai, Tamil Nadu 600077, India",ChIJJ8yKDOtjUjoR0SrWGB8qnC8,"Ayappakkam church (water tank), Ayappakkam Church (water tank), Chennai"
Ayappakkam Church (water tank),39,stop2,Pillaiyar kovil,13.1294532,80.1714924,13.129453199999997,80.1714924,"Pillaiyar Koil St, Chennai, Tamil Nadu 600053, India",ChIJE7BS3AhjUjoRBbDzh6zQAQQ,"Pillaiyar kovil, Ayappakkam Church (water tank), Chennai"
Ayappakkam Church (water tank),39,stop3,ICMR,13.0983046,80.13665110000001,13.09828361275489,80.13664957624216,"Ayappakkam, Chennai, Tamil Nadu, India",ChIJk5prZTdiUjoR1fRCxHB3WDc,"ICMR, Ayappakkam Church (water tank), Chennai"
Ayappakkam Church (water tank),39,stop4,Selvi Mahal,13.104452,80.1326952,13.10452282979808,80.13265684497848,"6th Main Road,, Bus Stop, 60/1, TNHB Rd, Near Govt.High School, Rajammal nagar, TNHB Colony, Annanur, Ayappakkam, Chennai, Tamil Nadu 600077, India",ChIJS3uduUhiUjoRqBLg4zN8Tp8,"Selvi Mahal, Ayappakkam Church (water tank), Chennai"
Ayappakkam Church (water tank),39,stop5,Ration shop,13.0743246,80.1685465,13.0743246,80.1685465,"Ration Shop Rd, Nolambur, Ambattur Industrial Estate, Chennai, Tamil Nadu 600095, India",ChIJU5Ys8l5hUjoR7t7QJX1FJuA,"Ration shop, Ayappakkam Church (water tank), Chennai"
Ayappakkam Church (water tank),39,stop6,EB,13.0983046,80.13665110000001,13.09828361275489,80.13664957624216,"Ayappakkam, Chennai, Tamil Nadu, India",ChIJk5prZTdiUjoR1fRCxHB3WDc,"EB, Ayappakkam Church (water tank), Chennai"
Ponneri,40,stop1,Krishnapuram (Ponneri),13.3340027,80.1943795,13.333981775357287,80.19434261347158,"Ponneri, Tamil Nadu 601204, India",ChIJOzTvG7R4UjoRmjvwKBnqqQQ,"Krishnapuram (Ponneri), Ponneri, Chennai"
Ponneri,40,stop2,Andarkuppam,13.1944732,80.264191,13.194206897099122,80.26420611582968,"Andarkuppam, Manali New Town, Manali, Chennai, Tamil Nadu 600103, India",ChIJ05B9sb16UjoR3-VOjALuVaw,"Andarkuppam, Ponneri, Chennai"
Ponneri,40,stop3,Velammal School,13.078671,80.174767,13.078631430858051,80.174780817207,"Velammal School, Brindawan Colony, Mogappair, Chennai, Tamil Nadu 600037, India",ChIJJX35nuJjUjoR9A8m0r72wCM,"Velammal School, Ponneri, Chennai"
Ponneri,40,stop4,Thachoor Koot Road,13.296639,80.14760299999999,13.296646091349977,80.14766106387059,"Thachur Koot Road, SH 56, Thatchoor, Tamil Nadu 601101, India",ChIJ2QElnfl-UjoR0iZ49q5WxdQ,"Thachoor Koot Road, Ponneri, Chennai"
Ponneri,40,stop5,Panchati,13.3340027,80.1943795,13.333981775357287,80.19434261347158,"Ponneri, Tamil Nadu 601204, India",ChIJOzTvG7R4UjoRmjvwKBnqqQQ,"Panchati, Ponneri, Chennai"
Ponneri,40,stop6,Irulipattu,13.3340027,80.1943795,13.333981775357287,80.19434261347158,"Ponneri, Tamil Nadu 601204, India",ChIJOzTvG7R4UjoRmjvwKBnqqQQ,"Irulipattu, Ponneri, Chennai"
Ponneri,40,stop7,Janapachathiram Koot Road,12.9230284,80.1868088,12.9230284,80.1868088,"Koot Rd, United Colony, Medavakkam, Chennai, Tamil Nadu 600100, India",ChIJ_xM9MJ5eUjoRpB6afBZE1g4,"Janapachathiram Koot Road, Ponneri, Chennai"
Ponneri,40,stop8,Karanodai,13.2506321,80.16091039999999,13.250570883166064,80.16091341714933,"Karanodai, Tamil Nadu 600067, India",ChIJyTqWfiV8UjoRnx7Lf11X2NA,"Karanodai, Ponneri, Chennai"
Ponneri,40,stop9,Cholavaram,13.2359597,80.16345849999999,13.235992637896539,80.16348441661285,"Sholavaram, Tamil Nadu 600067, India",ChIJZbBh-Ut8UjoRjIAhRtOW-AE,"Cholavaram, Ponneri, Chennai"
Ponneri,40,stop10,Padiyanallur,13.1989003,80.1764778,13.19891106203103,80.1764783344484,"Padianallur, Tamil Nadu 600052, India",ChIJ56q6JZ98UjoR2jIvR6aOkgA,"Padiyanallur, Ponneri, Chennai"
Ponneri,40,stop11,MA Nagar,13.2002927,80.17425399999999,13.200301996827386,80.174201202176,"M.A.Nagar, Padianallur, Tamil Nadu 600052, India",ChIJcwjv5JB8UjoRUsh5J47ZQBY,"MA Nagar, Ponneri, Chennai"
Ponneri,40,stop12,Redhills Bye Pass,13.3340027,80.1943795,13.333981775357287,80.19434261347158,"Ponneri, Tamil Nadu 601204, India",ChIJOzTvG7R4UjoRmjvwKBnqqQQ,"Redhills Bye Pass, Ponneri, Chennai"
Ponneri,40,stop13,Redhills Market,13.1888526,80.1883347,13.188767627616942,80.18823419918178,"30/12, Devanbu Street, Red Hills, Chennai, Tamil Nadu 600052, India",ChIJNUewaV97UjoRbfs8dGKJVNo,"Redhills Market, Ponneri, Chennai"
Ponneri,40,stop14,Redhills Bus Stand,13.1864645,80.1998776,13.18648608926704,80.19988300429169,"Red Hills, Chennai, Tamil Nadu, India",ChIJMYANK6B8UjoRDWonhFKPvTE,"Redhills Bus Stand, Ponneri, Chennai"
Ponneri,40,stop15,Redhills Koot Road,13.1864645,80.1998776,13.18648608926704,80.19988300429169,"Red Hills, Chennai, Tamil Nadu, India",ChIJMYANK6B8UjoRDWonhFKPvTE,"Redhills Koot Road, Ponneri, Chennai"
Kallikuppam,41,stop1,Surapet,13.136693,80.169371,13.136534999999999,80.169353,"Kallikuppam, Ambattur, Chennai, Tamil Nadu 600053, India",ChIJTz182W1jUjoR9LaBb1jqulQ,"Surapet, Kallikuppam, Chennai"
Kallikuppam,41,stop2,Kallikuppam Arch,13.1322915,80.16946089999999,13.132289153468387,80.16948495165892,"234, Ambattur Red Hills Rd, Kallikuppam, Ambattur, Chennai, Tamil Nadu 600053, India",ChIJA25vAqVjUjoRmL_miTbuQQc,"Kallikuppam Arch, Kallikuppam, Chennai"
Kallikuppam,41,stop3,Wireless,13.1320065,80.165272,13.131971724142355,80.16527394982378,"Wireless, Kallikuppam, Chennai, Tamil Nadu 600053, India",ChIJ5yo-K3NjUjoRgAsSIppRvtQ,"Wireless, Kallikuppam, Chennai"
Kallikuppam,41,stop4,Oragadam,13.136693,80.169371,13.136534999999999,80.169353,"Kallikuppam, Ambattur, Chennai, Tamil Nadu 600053, India",ChIJTz182W1jUjoR9LaBb1jqulQ,"Oragadam, Kallikuppam, Chennai"
Kallikuppam,41,stop5,P.T.R.Kalyanamanadapam,13.136693,80.169371,13.136534999999999,80.169353,"Kallikuppam, Ambattur, Chennai, Tamil Nadu 600053, India",ChIJTz182W1jUjoR9LaBb1jqulQ,"P.T.R.Kalyanamanadapam, Kallikuppam, Chennai"
Kallikuppam,41,stop6,Ajay Stadiuem,13.1330554,80.1024462,13.1327638,80.1021873,"44M2+6XG, Avadi, Tamil Nadu 600054, India",ChIJDaXcxn9iUjoRymadxobadq0,"Ajay Stadiuem, Kallikuppam, Chennai"
RedHills Bypass,42,stop1,Sothupakkam Signal,13.199252,80.1910347,13.199252,80.1910347,"Sothupakkam Rd, Red Hills, Chennai, Tamil Nadu, India",EjVTb3RodXBha2thbSBSZCwgUmVkIEhpbGxzLCBDaGVubmFpLCBUYW1pbCBOYWR1LCBJbmRpYSIuKiwKFAoSCcXzeEuCe1I6ERfmsgeH3T5_EhQKEgkxgA0roHxSOhENaieEUo-9MQ,"Sothupakkam Signal, RedHills Bypass, Chennai"
RedHills Bypass,42,stop2,SSR Palace,13.1918125,80.1894375,13.191741987661425,80.18937526144893,"GNT Rd, BYE PASS, Red Hills, Chennai, Padianallur, Tamil Nadu 600052, India",ChIJxTNLCAB7UjoRQygQaV3g0k8,"SSR Palace, RedHills Bypass, Chennai"
RedHills Bypass,42,stop3,Nel arisi kalyana mandapam (Signal),13.1842541,80.1924478,13.184064,80.1923224,"55MR+PX4, GNT Rd, Red Hills, Chennai, Vedakarai, Tamil Nadu 600052, India",ChIJpwA9Y6B8UjoRzKFl4KxUkyM,"Nel arisi kalyana mandapam (Signal), RedHills Bypass, Chennai"
RedHills Bypass,42,stop4,Redhills Market,13.1888526,80.1883347,13.188767627616942,80.18823419918178,"30/12, Devanbu Street, Red Hills, Chennai, Tamil Nadu 600052, India",ChIJNUewaV97UjoRbfs8dGKJVNo,"Redhills Market, RedHills Bypass, Chennai"
RedHills Bypass,42,stop5,Redhills Bus Stand,13.1949191,80.1690153,13.19491906716468,80.16901529358671,"Redhills - Thiruvallur High Rd, Red Hills, Chennai, Tamil Nadu, India",EkVSZWRoaWxscyAtIFRoaXJ1dmFsbHVyIEhpZ2ggUmQsIFJlZCBIaWxscywgQ2hlbm5haSwgVGFtaWwgTmFkdSwgSW5kaWEiLiosChQKEgmR2no6mXxSOhE9qwRiuXgvoBIUChIJMYANK6B8UjoRDWonhFKPvTE,"Redhills Bus Stand, RedHills Bypass, Chennai"
RedHills Bypass,42,stop6,Alamaram,13.1942649,80.1743861,13.194295034457298,80.17437059318056,"t.h.road,alamaram, 52, Red Hills, Chennai, Padianallur, Tamil Nadu 600052, India",ChIJD90mupd8UjoR6yMgoNbVeGQ,"Alamaram, RedHills Bypass, Chennai"
RedHills Bypass,42,stop7,Gandhi Nagar,13.1952186,80.1679597,13.195218600000002,80.1679597,"Redhills - Thiruvallur High Rd, Chennai, Tamil Nadu, India",EjpSZWRoaWxscyAtIFRoaXJ1dmFsbHVyIEhpZ2ggUmQsIENoZW5uYWksIFRhbWlsIE5hZHUsIEluZGlhIi4qLAoUChIJkdp6Opl8UjoRPasEYrl4L6ASFAoSCWEzfU_qZVI6ETPUY2gLp2Fu,"Gandhi Nagar, RedHills Bypass, Chennai"
RedHills Bypass,42,stop8,Petrol Bunk (Pammathukulam),13.1657007,80.1456496,13.16618517975584,80.14561863533464,"Pammathukulam, Tamil Nadu, India",ChIJadftaipjUjoR1vi3UvpYpXo,"Petrol Bunk (Pammathukulam), RedHills Bypass, Chennai"
RedHills Bypass,42,stop9,Outer ring road Bridge,13.1964301,80.1552277,13.196430099999999,80.1552277,"Chennai Outer Ring Rd, Red Hills, Chennai, Tamil Nadu, India",EjxDaGVubmFpIE91dGVyIFJpbmcgUmQsIFJlZCBIaWxscywgQ2hlbm5haSwgVGFtaWwgTmFkdSwgSW5kaWEiLiosChQKEgmpKI58fYpSOhEC__Dd4J4NRRIUChIJMYANK6B8UjoRDWonhFKPvTE,"Outer ring road Bridge, RedHills Bypass, Chennai"
RedHills Bypass,42,stop10,Perumal Adipatham,13.1962992,80.1548567,13.196308700000001,80.1547889,"Perumal adi Padham, service road, minjur, 55W3+GW9, highway, Gandhinagar, Red Hills, Chennai, Tamil Nadu 600052, India",ChIJIQhlkld9UjoRJfEefneptJQ,"Perumal Adipatham, RedHills Bypass, Chennai"
RedHills Bypass,42,stop11,Saint Michaels Polytechnic,13.1036087,80.2007502,13.103619354690125,80.20085964123368,"Administrative Office, Jeayam Sakthi Complex, Sidco Industrial Estate, Villivakkam, Chennai, Tamil Nadu 600049, India",ChIJc9TrsQpmUjoRldby4F7bbvw,"Saint Michaels Polytechnic, RedHills Bypass, Chennai"
Puzhal Byepass,43,stop1,Kavankarai,13.1705476,80.1954051,13.1706293,80.1954343,"Kavankarai, Puzhal, Chennai, Tamil Nadu 600066, India",ChIJDRsiUbNkUjoR7w3RkS5M9zo,"Kavankarai, Puzhal Byepass, Chennai"
Puzhal Byepass,43,stop2,Puzhal Jail,13.164878,80.202483,13.164858350959161,80.20240541839718,"Puzhal Jail, Service Rd, St Anthony Nagar, Mahalakshmi Nagar, Puzhal, Chennai, Tamil Nadu 600066, India",ChIJqUs1arFkUjoRnNQYGrxYB2A,"Puzhal Jail, Puzhal Byepass, Chennai"
Puzhal Byepass,43,stop3,Puzhual Camp,13.1584711,80.2036881,13.158477205522274,80.20370195911941,"Puzhal, Chennai, Tamil Nadu, India",ChIJf8hRQKxkUjoR97GnDYsuedc,"Puzhual Camp, Puzhal Byepass, Chennai"
Puzhal Byepass,43,stop4,Shanmugapuram,13.1430447,80.1834789,13.143056616837274,80.18334540381608,"Shanmugapuram, Bharathidasan Nagar, Surapet, Mottur, Tamil Nadu 600066, India",ChIJ5-f8TGZjUjoRdSvC__-5dxY,"Shanmugapuram, Puzhal Byepass, Chennai"
Puzhal Byepass,43,stop5,Pudur,13.1584711,80.2036881,13.158477205522274,80.20370195911941,"Puzhal, Chennai, Tamil Nadu, India",ChIJf8hRQKxkUjoR97GnDYsuedc,"Pudur, Puzhal Byepass, Chennai"
Puzhal,44,stop1,Umayal Achi nursing college,13.1578216,80.1978804,13.157651738483073,80.19785238087849,"OMAYAL ACHI COLLEGE OF NURSING, Puzhal, Tiruvallur, Chennai, Tamil Nadu 600066, India",ChIJfdoMbKVkUjoRKkxHbbFQ6G4,"Umayal Achi nursing college, Puzhal, Chennai"
Puzhal,44,stop2,Velammal college,13.150866,80.191431,13.150814419112134,80.19146906734952,"Velammal College, Puzhal, Chennai, Tamil Nadu 600066, India",ChIJyzawDaFkUjoRB67o6In3dEU,"Velammal college, Puzhal, Chennai"
Puzhal,44,stop3,Singapore shopping,13.1163694,80.2313473,13.11630269993639,80.23130123114443,"147, Paper Mills Road, Shakthivel Nagar, Perambur, Chennai, Tamil Nadu 600011, India",ChIJq_vjtlJkUjoRGL1ga9s6uiM,"Singapore shopping, Puzhal, Chennai"
Puzhal,44,stop4,Stedford Hospital,13.1255449,80.1440334,13.125760176974161,80.14401674392282,"7, Madras Thiruvallur High Rd, Shobha Nagar, OT, Ambattur, Chennai, Tamil Nadu 600053, India",ChIJo4m4NgBjUjoRbopglRlWAAs,"Stedford Hospital, Puzhal, Chennai"
Puzhal,44,stop5,Moorthy Nagar,13.1459444,80.2063355,13.1459444,80.2063355,"Moorthy Nagar, Madhavaram, Chennai, Tamil Nadu, India",ChIJbe4gTJRkUjoRPSWTnYtolLI,"Moorthy Nagar, Puzhal, Chennai"
Oragadam (Ambattur),45,stop1,Oragadam - PTR Kalyana Mandapam,13.1245553,80.15219189999999,13.124560684174758,80.15210125335136,"Madras Thiruvallur High Road,MTH Road,मद्रास थिरूवल्लूर हाई मार्ग, 62, Surapet Main Rd, Vijayalakshmi Puram, Ambattur, Chennai, Tamil Nadu 600053, India",ChIJ0VH4lgdjUjoR6lEfXSk2v0s,"Oragadam - PTR Kalyana Mandapam, Oragadam (Ambattur), Chennai"
Oragadam (Ambattur),45,stop2,Stedford,13.1243644,80.1440174,13.124299126675076,80.14397567100377,"Stedford Hospital, NH 716, Lenin Nagar, Oragadam, Chennai, Tamil Nadu 600109, India",ChIJmYbfPABjUjoRrf-T39amyPE,"Stedford, Oragadam (Ambattur), Chennai"
Oragadam (Ambattur),45,stop3,Saraswathi Nagar,13.1350516,80.1432237,13.134967325185986,80.14320625107196,"Saraswati Nagar, Thirumullaivoyal, Chennai, Tamil Nadu 600062, India",ChIJVxoHNv1iUjoReKzr5xCtakA,"Saraswathi Nagar, Oragadam (Ambattur), Chennai"
Oragadam (Ambattur),45,stop4,Avadi Check post,13.119296,80.09422699999999,13.11935228795249,80.09422035397361,"Avadi Check Post, New Military Rd, Kasturba Nagar, Avadi, Tamil Nadu 600054, India",ChIJHRx-49SJUjoRWOLnTjHUTiA,"Avadi Check post, Oragadam (Ambattur), Chennai"
Oragadam (Ambattur),45,stop5,Paruthipattu,13.0947825,80.1254469,13.094789999424613,80.12543190137046,"533, SECURITY ROOM, 3g, Tiruverkadu Rd, near VGN PLATINA, Paruthippattu, Aparna Nagar, MGR Nagar, Ayappakkam, Chennai, Tamil Nadu 600077, India",ChIJMZJAbT1jUjoRbZnJy3lgh1s,"Paruthipattu, Oragadam (Ambattur), Chennai"
Uthukottai,46,stop1,Uthukottai Bus Stand,13.0843007,80.2704622,13.0843007,80.2704622,"Chennai, Tamil Nadu, India",ChIJYTN9T-plUjoRM9RjaAunYW4,"Uthukottai Bus Stand, Uthukottai, Chennai"
Uthukottai,46,stop2,Peruncheri,13.0843007,80.2704622,13.0843007,80.2704622,"Chennai, Tamil Nadu, India",ChIJYTN9T-plUjoRM9RjaAunYW4,"Peruncheri, Uthukottai, Chennai"
Uthukottai,46,stop3,Seethancheri,13.2789188,79.8891817,13.278845300381645,79.88917588965667,"Seethanjeri, Tamil Nadu 602026, India",ChIJH6BC0e2cUjoRrvgH1vUoPPk,"Seethancheri, Uthukottai, Chennai"
Uthukottai,46,stop4,Poondi Koot Road,12.9230284,80.1868088,12.9230284,80.1868088,"Koot Rd, United Colony, Medavakkam, Chennai, Tamil Nadu 600100, India",ChIJ_xM9MJ5eUjoRpB6afBZE1g4,"Poondi Koot Road, Uthukottai, Chennai"
Uthukottai,46,stop5,Thiruvallur - Meera Theatre,13.0843007,80.2704622,13.0843007,80.2704622,"Chennai, Tamil Nadu, India",ChIJYTN9T-plUjoRM9RjaAunYW4,"Thiruvallur - Meera Theatre, Uthukottai, Chennai"
Uthukottai,46,stop6,Thiruvallur GRT,13.0843007,80.2704622,13.0843007,80.2704622,"Chennai, Tamil Nadu, India",ChIJYTN9T-plUjoRM9RjaAunYW4,"Thiruvallur GRT, Uthukottai, Chennai"
Uthukottai,46,stop7,College campus,13.0843007,80.2704622,13.0843007,80.2704622,"Chennai, Tamil Nadu, India",ChIJYTN9T-plUjoRM9RjaAunYW4,"College campus, Uthukottai, Chennai"
Kakkalur,47,stop1,Kakkalur Bus stop,13.0843007,80.2704622,13.0843007,80.2704622,"Chennai, Tamil Nadu, India",ChIJYTN9T-plUjoRM9RjaAunYW4,"Kakkalur Bus stop, Kakkalur, Chennai"
Kakkalur,47,stop2,Manavalanagar Railway Station,13.0843007,80.2704622,13.0843007,80.2704622,"Chennai, Tamil Nadu, India",ChIJYTN9T-plUjoRM9RjaAunYW4,"Manavalanagar Railway Station, Kakkalur, Chennai"
Kakkalur,47,stop3,NDP Mahal,13.0843007,80.2704622,13.0843007,80.2704622,"Chennai, Tamil Nadu, India",ChIJYTN9T-plUjoRM9RjaAunYW4,"NDP Mahal, Kakkalur, Chennai"
Kakkalur,47,stop4,Ondikuppam (Sangeetha Hotel),13.1266657,79.91882369999999,13.126542529597348,79.91881953718705,"Kakkalur, Tamil Nadu, India",ChIJRdhsyyeQUjoRc1rf_Ts3YbM,"Ondikuppam (Sangeetha Hotel), Kakkalur, Chennai"
Kakkalur,47,stop5,Putlur Bus Stop,13.1266657,79.91882369999999,13.126542529597348,79.91881953718705,"Kakkalur, Tamil Nadu, India",ChIJRdhsyyeQUjoRc1rf_Ts3YbM,"Putlur Bus Stop, Kakkalur, Chennai"
Kakkalur,47,stop6,Aranvoyal Bus Stop,13.0843007,80.2704622,13.0843007,80.2704622,"Chennai, Tamil Nadu, India",ChIJYTN9T-plUjoRM9RjaAunYW4,"Aranvoyal Bus Stop, Kakkalur, Chennai"
Kakkalur,47,stop7,Thirumazhisai bus stand,13.055494,80.056709,13.055478182671543,80.05670142991974,"Thirumazhisai Bus Stand, Chennai Tiruvallur High Rd, Ramachandra Nagar, Thirumazhisai, Tamil Nadu 600124, India",ChIJifz_XTSKUjoR86jQmMDiRXU,"Thirumazhisai bus stand, Kakkalur, Chennai"
Thiruvallur,48,stop1,Vasantha Bhavan Hotel,12.9196323,80.2512574,12.919665732730952,80.25116111131038,"102, Cholamandal Artists Village, Injambakkam, Chennai, Tamil Nadu 600115, India",ChIJzYu8vJpdUjoRZdYWyjvVmJc,"Vasantha Bhavan Hotel, Thiruvallur, Chennai"
Thiruvallur,48,stop2,State Bank of India,13.0843007,80.2704622,13.0843007,80.2704622,"Chennai, Tamil Nadu, India",ChIJYTN9T-plUjoRM9RjaAunYW4,"State Bank of India, Thiruvallur, Chennai"
Thiruvallur,48,stop3,Oil Mill,12.9241878,80.1049784,12.924187800000002,80.1049784,"Oil Mill St, Ramanatha Nagar, Tambaram, Chennai, Tamil Nadu 600045, India",ChIJp7EzZmRfUjoRlyJkJmdO-Gc,"Oil Mill, Thiruvallur, Chennai"
Thiruvallur,48,stop4,Caterpillar,13.0843007,80.2704622,13.0843007,80.2704622,"Chennai, Tamil Nadu, India",ChIJYTN9T-plUjoRM9RjaAunYW4,"Caterpillar, Thiruvallur, Chennai"
Thiruvallur,48,stop5,Melnallathur,13.0843007,80.2704622,13.0843007,80.2704622,"Chennai, Tamil Nadu, India",ChIJYTN9T-plUjoRM9RjaAunYW4,"Melnallathur, Thiruvallur, Chennai"
Thiruvallur,48,stop6,TCL,13.0843007,80.2704622,13.0843007,80.2704622,"Chennai, Tamil Nadu, India",ChIJYTN9T-plUjoRM9RjaAunYW4,"TCL, Thiruvallur, Chennai"
Thiruvallur,48,stop7,Athikulam,13.0843007,80.2704622,13.0843007,80.2704622,"Chennai, Tamil Nadu, India",ChIJYTN9T-plUjoRM9RjaAunYW4,"Athikulam, Thiruvallur, Chennai"
Veppampattu,49,stop1,Veppampattu Tea Kadai,13.1236559,79.9977029,13.1232191666212,79.99763934259099,"Veppampattu, Veppambaattu, Tamil Nadu 602024, India",ChIJmbW5Wi-PUjoRLXjdLc8jcpY,"Veppampattu Tea Kadai, Veppampattu, Chennai"
Veppampattu,49,stop2,Kandankollai,13.12705,79.991169,13.12702382815848,79.99116618166032,"Kandhan Kollai, Veppambaattu, Tamil Nadu 602024, India",ChIJpX_yQiOPUjoRL6zTILgAY88,"Kandankollai, Veppampattu, Chennai"
Veppampattu,49,stop3,Chevappettai,13.1291081,80.0076424,13.129110473988174,80.00765794784165,"Veppambaattu, Tamil Nadu 602024, India",ChIJFWHH8yaPUjoRpaA8SOp0D2Q,"Chevappettai, Veppampattu, Chennai"
Veppampattu,49,stop4,Tholuvur,13.1322956,79.9587511,13.132258726950218,79.95872293602122,"Thozuvur, Thozhur, Tamil Nadu 602025, India",ChIJuapsuqaPUjoRbU-ua4ggLsQ,"Tholuvur, Veppampattu, Chennai"
Veppampattu,49,stop5,Thaneerkulam,13.1424817,79.9514464,13.142439322953459,79.95143832000865,"Thaneerkulam, Tamil Nadu, India",ChIJF1VK6MCPUjoRAyh6-M30bVI,"Thaneerkulam, Veppampattu, Chennai"
Veppampattu,49,stop6,Thiruvalur GRT,13.1236581,79.91159379999999,13.123635317790598,79.91153403282959,"74, JN Rd, near Oil Mill Bus Stop, Kakkalur, Tiruvallur, Tamil Nadu 602001, India",ChIJY0GTEi-QUjoRgstmhqaO4QI,"Thiruvalur GRT, Veppampattu, Chennai"
Thirunindravur,50,stop1,Veppampattu Rly Station,13.1181068,80.033613,13.11812857724954,80.03361672215256,"Thiruninravur, Tamil Nadu 602024, India",ChIJ7V3DGd6IUjoR73wEob55FNo,"Veppampattu Rly Station, Thirunindravur, Chennai"
Thirunindravur,50,stop2,Veppampattu Rly 2nd Gate,13.1181068,80.033613,13.11812857724954,80.03361672215256,"Thiruninravur, Tamil Nadu 602024, India",ChIJ7V3DGd6IUjoR73wEob55FNo,"Veppampattu Rly 2nd Gate, Thirunindravur, Chennai"
Thirunindravur,50,stop3,Thirunindravur- Murugan Koil,13.1175033,80.0278479,13.1175033,80.0278479,"Murugan Kovil St, Thiruninravur, Tamil Nadu 602024, India",ChIJyY0q8yCJUjoRqUVxzRJTXc8,"Thirunindravur- Murugan Koil, Thirunindravur, Chennai"
Thirunindravur,50,stop4,Thirunindravur,13.1181068,80.033613,13.11812857724954,80.03361672215256,"Thiruninravur, Tamil Nadu 602024, India",ChIJ7V3DGd6IUjoR73wEob55FNo,"Thirunindravur, Thirunindravur, Chennai"
Thirunindravur,50,stop5,Nadukuthagai,13.1326404,80.0363631,13.132659260072007,80.03636640913354,"Nadukuthagai, Tamil Nadu 602024, India",ChIJn0KK4x6JUjoRDxrmR_HgedE,"Nadukuthagai, Thirunindravur, Chennai"
Thirunindravur,50,stop6,Jaya college,13.1233678,80.0449983,13.12337940064601,80.04499858271545,"Chennai - Tiruvallur High Rd, Thiruninravur, Chennai, Tamil Nadu 602024, India",ChIJY0rWUPyIUjoRNksH59x6guw,"Jaya college, Thirunindravur, Chennai"
Thirunindravur,50,stop7,Nemelichery rountana,13.1214881,80.0450706,13.121179694903715,80.04500737592247,"Nemilichery, Railway Station Road, Srinath Nagar, Nemilicheri, Tamil Nadu 602024, India",ChIJ2X3Vqf2IUjoRvNJ5AUyG1wc,"Nemelichery rountana, Thirunindravur, Chennai"
Avadi,51,stop1,Avadi Ramarathinam,13.1067448,80.0969511,13.106906142681797,80.09699343476025,"Avadi, Tamil Nadu, India",ChIJJW3vm9GJUjoRZI6AFrrodeU,"Avadi Ramarathinam, Avadi, Chennai"
Avadi,51,stop2,Ponnu Supermarket,13.1159932,80.1025032,13.116200970406895,80.10254171783225,"C-3 & C-4, New Military Rd, Kannigapuram, TNHB Mig V Block, Chennai, Avadi, Tamil Nadu 600054, India",ChIJt2N5tn5iUjoRd2aWTtfnHs8,"Ponnu Supermarket, Avadi, Chennai"
Ambattur Stedford Hospital,52,stop1,JB Estate,13.1255449,80.1440334,13.125760176974161,80.14401674392282,"7, Madras Thiruvallur High Rd, Shobha Nagar, OT, Ambattur, Chennai, Tamil Nadu 600053, India",ChIJo4m4NgBjUjoRbopglRlWAAs,"JB Estate, Ambattur Stedford Hospital, Chennai"
Ambattur Stedford Hospital,52,stop2,Vasantham Nagar,13.1255449,80.1440334,13.125760176974161,80.14401674392282,"7, Madras Thiruvallur High Rd, Shobha Nagar, OT, Ambattur, Chennai, Tamil Nadu 600053, India",ChIJo4m4NgBjUjoRbopglRlWAAs,"Vasantham Nagar, Ambattur Stedford Hospital, Chennai"
Ambattur Stedford Hospital,52,stop3,Paruthipattu police Booth,13.1255449,80.1440334,13.125760176974161,80.14401674392282,"7, Madras Thiruvallur High Rd, Shobha Nagar, OT, Ambattur, Chennai, Tamil Nadu 600053, India",ChIJo4m4NgBjUjoRbopglRlWAAs,"Paruthipattu police Booth, Ambattur Stedford Hospital, Chennai"
Ambattur Stedford Hospital,52,stop4,Kaduvetti,13.1255449,80.1440334,13.125760176974161,80.14401674392282,"7, Madras Thiruvallur High Rd, Shobha Nagar, OT, Ambattur, Chennai, Tamil Nadu 600053, India",ChIJo4m4NgBjUjoRbopglRlWAAs,"Kaduvetti, Ambattur Stedford Hospital, Chennai"
Ambattur Stedford Hospital,52,stop5,Bharat bunk,13.1255449,80.1440334,13.125760176974161,80.14401674392282,"7, Madras Thiruvallur High Rd, Shobha Nagar, OT, Ambattur, Chennai, Tamil Nadu 600053, India",ChIJo4m4NgBjUjoRbopglRlWAAs,"Bharat bunk, Ambattur Stedford Hospital, Chennai"
Avadi (GRT),53,stop1,Avadi Pillyarkoil,13.119598,80.09330220000001,13.1196747,80.0930791,"No. 122/2A, Chennai - Tiruvallur High Rd, near State Bank of India, Gandhi Nagar, Avadi, Chennai, Tamil Nadu 600054, India",ChIJKSKuotSJUjoR97QJbzAM2WA,"Avadi Pillyarkoil, Avadi (GRT), Chennai"
Avadi (GRT),53,stop2,Kavarapalayam,13.121295,80.08542,13.121364491753944,80.08543466929899,"Kavarapalayam, Avadi, Tamil Nadu, India",ChIJpUCJyDKIUjoRTUXCy9hbhgk,"Kavarapalayam, Avadi (GRT), Chennai"
Avadi (GRT),53,stop3,Sindhu Nagar,13.1201612,80.0839101,13.120160272468999,80.08391559108765,"Sindhu Nagar, Pattabiram, Tamil Nadu, India",ChIJZ31qysyJUjoRMhPjnLCxMm0,"Sindhu Nagar, Avadi (GRT), Chennai"
Avadi (GRT),53,stop4,Sekkadu,13.1031993,80.094696,13.103167349318202,80.09479609214935,"Sekkadu, Avadi, Tamil Nadu 600071, India",ChIJS3Dww96JUjoR8DuSQ_gJXEU,"Sekkadu, Avadi (GRT), Chennai"
Avadi (GRT),53,stop5,Hindu College,13.1129723,80.0784068,13.112972989136873,80.0784327072022,"Hindu college, No.23, Durai kannu nagar, sekkadu, Avadi, Tamil Nadu 600071, India",ChIJk2E8ocmJUjoR9jO7aoJSCFM,"Hindu College, Avadi (GRT), Chennai"
Avadi (GRT),53,stop6,Pattabiram Bridge,13.1228447,80.06006119999999,13.122775735907439,80.06004853506855,"43F6+42M Pattabiram Bridge, Pattabiram, Tamil Nadu 600072, India",ChIJb1BHkfiIUjoR1Op0UOuuxXg,"Pattabiram Bridge, Avadi (GRT), Chennai"
Avadi Market,54,stop1,Govarthnagiri,13.1067448,80.0969511,13.106906142681797,80.09699343476025,"Avadi, Tamil Nadu, India",ChIJJW3vm9GJUjoRZI6AFrrodeU,"Govarthnagiri, Avadi Market, Chennai"
Avadi Market,54,stop2,Ayankulam,13.1067448,80.0969511,13.106906142681797,80.09699343476025,"Avadi, Tamil Nadu, India",ChIJJW3vm9GJUjoRZI6AFrrodeU,"Ayankulam, Avadi Market, Chennai"
Avadi Market,54,stop3,Paruthipatu,13.0914994,80.1051684,13.091834025397995,80.1051834266698,"Paruthippattu, Avadi, Tamil Nadu 600071, India",ChIJoz6mSgliUjoREym8VYlWwDw,"Paruthipatu, Avadi Market, Chennai"
Avadi Market,54,stop4,Kaduveti,13.077147,80.11103299999999,13.077137770536101,80.11100333843073,"Kaduvetti, SH 55, Viraraghavapuram, Avadi, Tamil Nadu 600077, India",ChIJUYiaZh1iUjoRiC6v6imH-lg,"Kaduveti, Avadi Market, Chennai"
Avadi Market,54,stop5,Seneerkuppam,13.052296,80.112809,13.052302871756327,80.11276530210868,"Senneerkuppam Electronic Board House, Avadi Rd, Periyar Nagar, Chennai, Tamil Nadu 600056, India",ChIJL90ZZsJhUjoRJwXtxN6FRqc,"Seneerkuppam, Avadi Market, Chennai"
Avadi (Veerapuram),55,stop1,Kollumedu GH,13.161989,80.11323100000001,13.16206497283038,80.11314474615864,"Kollumedu, New Vellanur, Tamil Nadu 600062, India",ChIJPeMl2rNiUjoRXNmSTLvSuAE,"Kollumedu GH, Avadi (Veerapuram), Chennai"
Avadi (Veerapuram),55,stop2,Kannadapalayam,13.1839045,80.0821275,13.183983464083942,80.08214336003923,"Veerapuram, Morai, Tamil Nadu 600055, India",ChIJrePDqO6HUjoRztXB0lIScPI,"Kannadapalayam, Avadi (Veerapuram), Chennai"
Avadi (Veerapuram),55,stop3,Vel Tech junction,13.167173,80.09830199999999,13.167212397088901,80.09835505540843,"Vel Tech Junction, Bharathi Nagar, New Vellanur, Tamil Nadu 600065, India",ChIJ3XOoVVV9UjoRJcw2JAPs6dc,"Vel Tech junction, Avadi (Veerapuram), Chennai"
Avadi (Veerapuram),55,stop4,Kovilpathagai,13.1432703,80.1052547,13.143576004974946,80.10527305968645,"3/3, Sannathi St, Kovil Pathagai, Poompozhil Nagar, Kalaingarnagar, Avadi, Tamil Nadu 600062, India",ChIJ8fQvXQBjUjoRPZbYJsQvB0Y,"Kovilpathagai, Avadi (Veerapuram), Chennai"
Avadi (Veerapuram),55,stop5,Ajay stadium,13.1330554,80.1024462,13.1327638,80.1021873,"44M2+6XG, Avadi, Tamil Nadu 600054, India",ChIJDaXcxn9iUjoRymadxobadq0,"Ajay stadium, Avadi (Veerapuram), Chennai"
Avadi (Veerapuram),55,stop6,Kalainar Nagar,13.1839045,80.0821275,13.183983464083942,80.08214336003923,"Veerapuram, Morai, Tamil Nadu 600055, India",ChIJrePDqO6HUjoRztXB0lIScPI,"Kalainar Nagar, Avadi (Veerapuram), Chennai"
Avadi (Veerapuram),55,stop7,Brinda nagar,13.1839045,80.0821275,13.183983464083942,80.08214336003923,"Veerapuram, Morai, Tamil Nadu 600055, India",ChIJrePDqO6HUjoRztXB0lIScPI,"Brinda nagar, Avadi (Veerapuram), Chennai"
Avadi (Veerapuram),55,stop8,CRPF junction,13.1551176,80.0920659,13.155117599999999,80.0920659,"CRPF Rd, Chennai, Tamil Nadu 600055, India",EipDUlBGIFJkLCBDaGVubmFpLCBUYW1pbCBOYWR1IDYwMDA1NSwgSW5kaWEiLiosChQKEgmFRKZTGohSOhGk5MKg3_Fv9xIUChIJYTN9T-plUjoRM9RjaAunYW4,"CRPF junction, Avadi (Veerapuram), Chennai"
Avadi (Veerapuram),55,stop9,Mittanemili,13.1532818,80.0639697,13.15328363905206,80.06394154347163,"Mittanemili, Bharathi Nagar, Avadi, Tamil Nadu 600055, India",ChIJnSoS0XqIUjoRFw17SHJ9ysE,"Mittanemili, Avadi (Veerapuram), Chennai"
Chengalpet,56,stop1,Chengalpet GH,13.0843007,80.2704622,13.0843007,80.2704622,"Chennai, Tamil Nadu, India",ChIJYTN9T-plUjoRM9RjaAunYW4,"Chengalpet GH, Chengalpet, Chennai"
Chengalpet,56,stop2,Chengalpet Rotanakenar,13.0843007,80.2704622,13.0843007,80.2704622,"Chennai, Tamil Nadu, India",ChIJYTN9T-plUjoRM9RjaAunYW4,"Chengalpet Rotanakenar, Chengalpet, Chennai"
Chengalpet,56,stop3,Chengalpet New Bus Stop,13.0843007,80.2704622,13.0843007,80.2704622,"Chennai, Tamil Nadu, India",ChIJYTN9T-plUjoRM9RjaAunYW4,"Chengalpet New Bus Stop, Chengalpet, Chennai"
Chengalpet,56,stop4,Chengalpet Old Bus Stop,13.0843007,80.2704622,13.0843007,80.2704622,"Chennai, Tamil Nadu, India",ChIJYTN9T-plUjoRM9RjaAunYW4,"Chengalpet Old Bus Stop, Chengalpet, Chennai"
Chengalpet,56,stop5,Mahindra city,13.0843007,80.2704622,13.0843007,80.2704622,"Chennai, Tamil Nadu, India",ChIJYTN9T-plUjoRM9RjaAunYW4,"Mahindra city, Chengalpet, Chennai"
Chengalpet,56,stop6,S.P.Koil,13.1925048,80.3095432,13.1925048,80.3095432,"Street Number 2, Girija Nagar, Chennai, Tamil Nadu 600057, India",ChIJMXo8VjdwUjoRXJh-Unh0vXY,"S.P.Koil, Chengalpet, Chennai"
Perungalathur,57,stop1,Perungalathur Bus stop,12.9048703,80.0845623,12.904861826248824,80.08456293537446,"Perungalathur, Tamil Nadu, India",ChIJGzeKUIb1UjoR1StMT4rkKmg,"Perungalathur Bus stop, Perungalathur, Chennai"
Perungalathur,57,stop2,Perungalathur Earikarai,12.9313037,80.1299401,12.9313037,80.1299401,"Erikkarai St, Tambaram, Chennai, Tamil Nadu 600059, India",ChIJP53HCA9fUjoRtLpwGk6VaPc,"Perungalathur Earikarai, Perungalathur, Chennai"
Perungalathur,57,stop3,Irumpuliyur,12.9172182,80.1077205,12.917235901959234,80.10770717648727,"Irumbuliyur, Chennai, Tamil Nadu, India",ChIJLZkpjF1fUjoRQWPYEL1BOtQ,"Irumpuliyur, Perungalathur, Chennai"
Perungalathur,57,stop4,Old Tambaram Kulam,12.9241799,80.1016777,12.924317416792633,80.10171083204955,"Old Tambaram, Tambaram, Chennai, Tamil Nadu 600045, India",ChIJ241Wj2NfUjoRQUzy10j9YL8,"Old Tambaram Kulam, Perungalathur, Chennai"
Perungalathur,57,stop5,Lakshmipuram,12.9048703,80.0845623,12.904861826248824,80.08456293537446,"Perungalathur, Tamil Nadu, India",ChIJGzeKUIb1UjoR1StMT4rkKmg,"Lakshmipuram, Perungalathur, Chennai"
Perungalathur,57,stop6,Krishnanagar,12.9048703,80.0845623,12.904861826248824,80.08456293537446,"Perungalathur, Tamil Nadu, India",ChIJGzeKUIb1UjoR1StMT4rkKmg,"Krishnanagar, Perungalathur, Chennai"
Varatharaja Theatre,58,stop1,Varatharaja Theatre,12.9374509,80.1388951,12.93743501303651,80.13885895589225,"30, 1st Main Rd, Jothi Nagar, Chitlapakkam, Chennai, Tamil Nadu 600064, India",ChIJJcIyDwBfUjoR0TVY_BK6z5g,"Varatharaja Theatre, Varatharaja Theatre, Chennai"
Varatharaja Theatre,58,stop2,Santorium,12.937275,80.138476,12.937316288919424,80.1384795250392,"Varadharaja Theatre, Chitlapakkam 2nd Main Road, Chitlapakkam, Chennai, Tamil Nadu 600064, India",ChIJ3f4AJAFfUjoRqD_FlzqZ3pk,"Santorium, Varatharaja Theatre, Chennai"
Varatharaja Theatre,58,stop3,Bharathamada Street,12.9483218,80.150353,12.948321800000004,80.150353,"Bharatha Matha St, Chromepet, Chennai, Tamil Nadu 600044, India",ChIJV9HaP1FeUjoR4js08KlYaRc,"Bharathamada Street, Varatharaja Theatre, Chennai"
Varatharaja Theatre,58,stop4,Bharathi Nagar,13.0498083,80.2345711,13.049851554536634,80.2345808340659,"Bharathy Nagar, T. Nagar, Chennai, Tamil Nadu 600017, India",ChIJv8psVlhmUjoRhB4GPNCGbEc,"Bharathi Nagar, Varatharaja Theatre, Chennai"
Varatharaja Theatre,58,stop5,Gandhi Nagar,13.0843007,80.2704622,13.0843007,80.2704622,"Chennai, Tamil Nadu, India",ChIJYTN9T-plUjoRM9RjaAunYW4,"Gandhi Nagar, Varatharaja Theatre, Chennai"
Varatharaja Theatre,58,stop6,Padmavathy Kalyanamandapam,12.9374509,80.1388951,12.93743501303651,80.13885895589225,"30, 1st Main Rd, Jothi Nagar, Chitlapakkam, Chennai, Tamil Nadu 600064, India",ChIJJcIyDwBfUjoR0TVY_BK6z5g,"Padmavathy Kalyanamandapam, Varatharaja Theatre, Chennai"
Varatharaja Theatre,58,stop7,Parvathy Nagar,13.1452709,80.24938230000001,13.145337152856591,80.24939864761937,"Parvathi Nagar, Kodungaiyur, Chennai, Tamil Nadu 600118, India",ChIJ06P7VBFlUjoRul8JeUhk_d8,"Parvathy Nagar, Varatharaja Theatre, Chennai"
Varatharaja Theatre,58,stop8,Outer Ring Road (Service Road),12.9374509,80.1388951,12.93743501303651,80.13885895589225,"30, 1st Main Rd, Jothi Nagar, Chitlapakkam, Chennai, Tamil Nadu 600064, India",ChIJJcIyDwBfUjoR0TVY_BK6z5g,"Outer Ring Road (Service Road), Varatharaja Theatre, Chennai"
Hasthinapuram,59,stop1,Hasthinapuram Bus Stand,12.9387231,80.14607749999999,12.938729111070096,80.14603817297132,"Hasthinapuram, Chromepet, Chennai, Tamil Nadu, India",ChIJvaFCklVeUjoRxjPmaP69cGs,"Hasthinapuram Bus Stand, Hasthinapuram, Chennai"
Hasthinapuram,59,stop2,Amman Koil,12.9387231,80.14607749999999,12.938729111070096,80.14603817297132,"Hasthinapuram, Chromepet, Chennai, Tamil Nadu, India",ChIJvaFCklVeUjoRxjPmaP69cGs,"Amman Koil, Hasthinapuram, Chennai"
Hasthinapuram,59,stop3,Kumaran Kundram,12.941869,80.143345,12.941849224650488,80.14334079627041,"Kumaran Kundram, Hasthinapuram, Chromepet, Chennai, Tamil Nadu 600044, India",ChIJC44ZSVVeUjoR_M8q_-FUrlA,"Kumaran Kundram, Hasthinapuram, Chennai"
Hasthinapuram,59,stop4,Bharathi Nagar Auto Stand,12.9387231,80.14607749999999,12.938729111070096,80.14603817297132,"Hasthinapuram, Chromepet, Chennai, Tamil Nadu, India",ChIJvaFCklVeUjoRxjPmaP69cGs,"Bharathi Nagar Auto Stand, Hasthinapuram, Chennai"
Hasthinapuram,59,stop5,Tambaram Gandhi Road,12.9387231,80.14607749999999,12.938729111070096,80.14603817297132,"Hasthinapuram, Chromepet, Chennai, Tamil Nadu, India",ChIJvaFCklVeUjoRxjPmaP69cGs,"Tambaram Gandhi Road, Hasthinapuram, Chennai"
Hasthinapuram,59,stop6,Madanapuram Bridge (outer ring Road),13.0477221,80.0844198,13.047722099999998,80.08441979999999,"Chennai Outer Ring Rd, Tamil Nadu, India",ChIJqSiOfH2KUjoRAv_w3eCeDUU,"Madanapuram Bridge (outer ring Road), Hasthinapuram, Chennai"
Guduvanchery,60,stop1,Guduvanchery Bus stand,12.8447677,80.0616833,12.844703980494222,80.06158014920734,"R3V6+WM3, Nandivaram, Kamarajapuram, Nandhivaram, Guduvancheri, Tamil Nadu 603202, India",ChIJ_x8-8dr3UjoRylJbfzDAAHc,"Guduvanchery Bus stand, Guduvanchery, Chennai"
Guduvanchery,60,stop2,Guduvanchery EB,12.851626,80.066165,12.851676346682602,80.06608845202368,"Guduvancheri EB Office, Mahalakshmi Nagar, Guduvancheri, Tamil Nadu 603202, India",ChIJYXZOk032UjoRmjaNK79Cu4w,"Guduvanchery EB, Guduvanchery, Chennai"
Guduvanchery,60,stop3,Urapakkam Tea Kadai,12.8621186,80.073253,12.862077344000772,80.07334051293206,"Urapakkam- Near Tea kadai, Urapakkam, Chennai, Tamil Nadu 603210, India",ChIJ4c_8G0f2UjoR6v0DEb6aOQ0,"Urapakkam Tea Kadai, Guduvanchery, Chennai"
Guduvanchery,60,stop4,Urapakkam School stop,12.8673697,80.0698575,12.867353456742846,80.06985841944245,"Urapakkam, Tamil Nadu, India",ChIJp4BxTUH2UjoRgcHiqUV9W_0,"Urapakkam School stop, Guduvanchery, Chennai"
Guduvanchery,60,stop5,Vandalur,12.8438835,80.05973639999999,12.843862558746611,80.05975767576302,"Guduvancheri, Tamil Nadu, India",ChIJ9eVFfwn3UjoRJZLhf1X1UT0,"Vandalur, Guduvanchery, Chennai"
Kamatchi Hospital (Pallikaranai),61,stop1,Kamachi Hospital,12.9489215,80.210169,12.948904277690286,80.21021507059389,"Kamatchi Hospital, Chennai, Tamil Nadu 600100, India",ChIJWymrALZdUjoRKOWG2JgjoqY,"Kamachi Hospital, Kamatchi Hospital (Pallikaranai), Chennai"
Kamatchi Hospital (Pallikaranai),61,stop2,Narayanapuram,12.9490313,80.2089704,12.94908417108834,80.20897889593508,"Flyover Tambaram Velachery Main Road Bridge Pallikaranai, Pallavaram-Thuraipakkam Rd, Dandeeswarar Nagar, Rose Avenue, Kovilambakkam, Chennai, Tamil Nadu 600100, India",ChIJJdYrRgBdUjoR8QWjn_GuVNM,"Narayanapuram, Kamatchi Hospital (Pallikaranai), Chennai"
Kamatchi Hospital (Pallikaranai),61,stop3,Pallikaranai Oil Mill,12.9490397,80.20904159999999,12.949073765559714,80.209047074056,"1, 200 Feet Radial Rd, Dandeeswarar Nagar, Rose Avenue, Pallikaranai, Chennai, Tamil Nadu 600100, India",ChIJc84A-sldUjoRi7DXwEpL1qE,"Pallikaranai Oil Mill, Kamatchi Hospital (Pallikaranai), Chennai"
Kamatchi Hospital (Pallikaranai),61,stop4,Pallikaranai Govt School,12.9490397,80.20904159999999,12.949073765559714,80.209047074056,"1, 200 Feet Radial Rd, Dandeeswarar Nagar, Rose Avenue, Pallikaranai, Chennai, Tamil Nadu 600100, India",ChIJc84A-sldUjoRi7DXwEpL1qE,"Pallikaranai Govt School, Kamatchi Hospital (Pallikaranai), Chennai"
Kamatchi Hospital (Pallikaranai),61,stop5,Pallikaranai Jayachandran,12.9213919,80.1975877,12.92166149543527,80.19757909749862,"1A, Jeyachandran Nagar 1st Main Rd, Jeyachandran Nagar, Pallikaranai, Chennai, Tamil Nadu 600100, India",ChIJA7kGwCJcUjoRiMj28USFEoU,"Pallikaranai Jayachandran, Kamatchi Hospital (Pallikaranai), Chennai"
Kamatchi Hospital (Pallikaranai),61,stop6,Nilgiris Supermarket,12.9282176,80.2315279,12.928143401502835,80.23150799826405,"Sukasri Retails, Nakshatra Apartments, Rajiv Gandhi Salai, Annani Indira Nagar, Indira Nagar, Thoraipakkam, Chennai, Tamil Nadu 600097, India",ChIJi3zH1gZdUjoRFAVZn3jz8ZA,"Nilgiris Supermarket, Kamatchi Hospital (Pallikaranai), Chennai"
Medavakkam X Road,62,stop1,Medavakkam X Road,12.9164692,80.1915157,12.9164692,80.1915157,"Main Rd, Munusamy Nagar, Vimala Nagar, Medavakkam, Chennai, Tamil Nadu 600100, India",ChIJi5Eu3R5cUjoRVpt35hp5aTE,"Medavakkam X Road, Medavakkam X Road, Chennai"
Medavakkam X Road,62,stop2,Puthukoil Bus Stop,12.9188883,80.1789361,12.918889125185276,80.17893906697593,"Puthu Koil Bus Stop, Vijayanagaram 2nd Main Rd, Vijayanagaram, Nanmangalam Reserved Forest, Medavakkam, Chennai, Tamil Nadu 600117, India",ChIJP6PQhqJeUjoRScPY8UcUwL4,"Puthukoil Bus Stop, Medavakkam X Road, Chennai"
Medavakkam X Road,62,stop3,Santhoshpuram Signal,12.9164692,80.1915157,12.9164692,80.1915157,"Main Rd, Munusamy Nagar, Vimala Nagar, Medavakkam, Chennai, Tamil Nadu 600100, India",ChIJi5Eu3R5cUjoRVpt35hp5aTE,"Santhoshpuram Signal, Medavakkam X Road, Chennai"
Medavakkam X Road,62,stop4,Sembakkam Signal,12.9234492,80.1587694,12.923435698019604,80.15876802989156,"Sembakkam, Chennai, Tamil Nadu, India",ChIJjwSIZuleUjoRjDpmw_YilvQ,"Sembakkam Signal, Medavakkam X Road, Chennai"
Medavakkam X Road,62,stop5,Rajakilpakkam Signal,12.9177246,80.1556572,12.917641900000001,80.15544369999999,"Rajakilpakkam, Tamil Nadu 600073, India",ChIJR4hXheZeUjoRNt5dLX5VzCc,"Rajakilpakkam Signal, Medavakkam X Road, Chennai"
Padur,63,stop1,Siruseri Roundtana,12.8076844,80.22581149999999,12.807698109277494,80.22581610218782,"Padur, Tamil Nadu, India",ChIJJVqjZ4NQUjoRnIAtJlCtjrc,"Siruseri Roundtana, Padur, Chennai"
Padur,63,stop2,Padur Market,12.8013122,80.22353729999999,12.801314571966463,80.22352311047416,"R62F+GCF, Thirupathi Nagar Main Rd, Chennai, Padur, Tamil Nadu 603103, India",ChIJQYaCPQBRUjoRvODryRdeHxw,"Padur Market, Padur, Chennai"
Padur,63,stop3,Hindustan College,12.8012994,80.22372709999999,12.801310946003737,80.22359066864053,"Rajiv Gandhi Salai, OMR, Padur, Kelambakkam, Tamil Nadu 603103, India",ChIJ11MzfYRQUjoR29pi8_FaWGo,"Hindustan College, Padur, Chennai"
Padur,63,stop4,Kelambakkam(Vandalur X Road),12.8912559,80.08100089999999,12.891254368706615,80.08100083347657,"Vandalur, Tamil Nadu 600048, India",ChIJy7t0xgn2UjoRM_bhnwg2rB8,"Kelambakkam(Vandalur X Road), Padur, Chennai"
Padur,63,stop5,Pudupakkam,12.8076844,80.22581149999999,12.807698109277494,80.22581610218782,"Padur, Tamil Nadu, India",ChIJJVqjZ4NQUjoRnIAtJlCtjrc,"Pudupakkam, Padur, Chennai"
Padur,63,stop6,Mambakkam,12.8385371,80.1697145,12.838536304130661,80.16971568037204,"Mambakkam, Tamil Nadu 600127, India",ChIJ8bkG7L9ZUjoRr1TOsm_mR4o,"Mambakkam, Padur, Chennai"
Padur,63,stop7,Mambakkam Sivan Koil,12.8052822,80.2233941,12.805282200000002,80.2233941,"Sivan Kovil St, Padur, Tamil Nadu 603103, India",ChIJxxV884JQUjoRhxQxd7qi4-g,"Mambakkam Sivan Koil, Padur, Chennai"
Padur,63,stop8,Thiruvanchery,12.8933794,80.1381562,12.893423491324565,80.13836064492098,"Tiruvanchery, Selaiyur, Chennai, Tamil Nadu, India",ChIJUbzdV9VeUjoRe-oop_-roXE,"Thiruvanchery, Padur, Chennai"
Padur,63,stop9,Theeder Nagar,12.8076844,80.22581149999999,12.807698109277494,80.22581610218782,"Padur, Tamil Nadu, India",ChIJJVqjZ4NQUjoRnIAtJlCtjrc,"Theeder Nagar, Padur, Chennai"
Padur,63,stop10,Lakshmi Ammal College,12.8956198,80.1431595,12.895628339717781,80.14290198697195,"83, 3, Agaram Main Rd, Tiruvanchery, Selaiyur, Chennai, Tamil Nadu 600126, India",ChIJqza4VtVeUjoR3XTWA_zN5wI,"Lakshmi Ammal College, Padur, Chennai"
Padur,63,stop11,Bharath Engineering College,12.8076844,80.22581149999999,12.807698109277494,80.22581610218782,"Padur, Tamil Nadu, India",ChIJJVqjZ4NQUjoRnIAtJlCtjrc,"Bharath Engineering College, Padur, Chennai"
Padur,63,stop12,Indra Nagar,12.8076844,80.22581149999999,12.807698109277494,80.22581610218782,"Padur, Tamil Nadu, India",ChIJJVqjZ4NQUjoRnIAtJlCtjrc,"Indra Nagar, Padur, Chennai"
Padur,63,stop13,Malar Hospital,12.8076844,80.22581149999999,12.807698109277494,80.22581610218782,"Padur, Tamil Nadu, India",ChIJJVqjZ4NQUjoRnIAtJlCtjrc,"Malar Hospital, Padur, Chennai"
Madippakam,64,stop1,Ponniamman Koil,12.9682025,80.1962742,12.968202499999997,80.1962742,"Ponniamman Koil St, Madipakkam, Chennai, Tamil Nadu 600091, India",ChIJY9XLT-ZdUjoRjUVRNSs5iKA,"Ponniamman Koil, Madippakam, Chennai"
Madippakam,64,stop2,PNB Bank,12.9647462,80.19608319999999,12.964744218296076,80.19616865742287,"Madipakkam, Chennai, Tamil Nadu, India",ChIJwb06RuldUjoRPZaCWAeCHwc,"PNB Bank, Madippakam, Chennai"
Madippakam,64,stop3,Sathasiva Nagar,12.9640567,80.203685,12.964103248853343,80.20369432801621,"Sadasiva Nagar, Madipakkam, Chennai, Tamil Nadu 600091, India",ChIJ2yXSBcNdUjoRg0tGbTaQz_E,"Sathasiva Nagar, Madippakam, Chennai"
Madippakam,64,stop4,Ram Nagar,12.9698259,80.21083589999999,12.970026341705148,80.21086426384397,"Ram Nagar, Madipakkam, Chennai, Tamil Nadu 600091, India",ChIJwxtLO5VdUjoRfBkf7nD7hPk,"Ram Nagar, Madippakam, Chennai"
Madippakam,64,stop5,Kaiveli Signal,12.9636128,80.2157484,12.96361509253322,80.21574906765474,"Kaiveli, Thanthai Periyar Nagar, Ram Nagar South, Madipakkam, Chennai, Tamil Nadu 600042, India",ChIJYVX1071dUjoRGdDHnQ3bCkQ,"Kaiveli Signal, Madippakam, Chennai"
Nanmangalam,65,stop1,Nanmangalam,12.940278,80.1784835,12.940279212639547,80.17849295526086,"Nanmangalam, Manikandan Nagar, Chennai, Tamil Nadu 600129, India",ChIJCXX_8Y5eUjoRSL9wu3gEDGo,"Nanmangalam, Nanmangalam, Chennai"
Nanmangalam,65,stop2,Vadakupattu Road,12.9276772,80.1869191,12.9276772,80.1869191,"Vadakkupattu Main Rd, Chennai, Tamil Nadu, India",ChIJW07mZp1eUjoRYx32lA_zfBc,"Vadakupattu Road, Nanmangalam, Chennai"
Nanmangalam,65,stop3,Vellakal,12.9316317,80.18105489999999,12.931633404147606,80.18105533434839,"Vellakal, Chennai, Tamil Nadu, India",ChIJ7Z_Pu4ReUjoR_eFQ4nQ2Zjs,"Vellakal, Nanmangalam, Chennai"
Nanmangalam,65,stop4,Kamarajapuram,12.9391338,80.17737,12.939033129001837,80.17737592768876,"Nanmangalam, Chennai, Tamil Nadu 600129, India",ChIJQyaNhYheUjoRMs3ick_PgOc,"Kamarajapuram, Nanmangalam, Chennai"
Nanmangalam,65,stop5,Mahalakshmi Nagar,12.9240317,80.1446029,12.92402118334354,80.14465725850441,"Mahalakshmi Nagar, Tambaram, Chennai, Tamil Nadu 600073, India",ChIJTY4_KOJeUjoRedjCj5y8h-k,"Mahalakshmi Nagar, Nanmangalam, Chennai"
Nanmangalam,65,stop6,Selaiyur,12.9391338,80.17737,12.939033129001837,80.17737592768876,"Nanmangalam, Chennai, Tamil Nadu 600129, India",ChIJQyaNhYheUjoRMs3ick_PgOc,"Selaiyur, Nanmangalam, Chennai"
Nanmangalam,65,stop7,Sankara vidyalaya School,12.9391338,80.17737,12.939033129001837,80.17737592768876,"Nanmangalam, Chennai, Tamil Nadu 600129, India",ChIJQyaNhYheUjoRMs3ick_PgOc,"Sankara vidyalaya School, Nanmangalam, Chennai"
Nanmangalam,65,stop8,Poondi Bazaar,12.923189,80.125489,12.923075040381063,80.12548447678151,"Poondi Bazaar, Railway Colony, East Tambaram, Tambaram, Chennai, Tamil Nadu 600045, India",ChIJiRKp-RNfUjoRAqvrDxQ2knM,"Poondi Bazaar, Nanmangalam, Chennai"
Nanmangalam,65,stop9,Tambaram Railway Station,12.9256641,80.1174315,12.925655453503095,80.117439613895,"Tambaram railway station, East Tambaram, Tambaram, Chennai, Tamil Nadu 600045, India",ChIJp-93q21fUjoRp73uX0_06KA,"Tambaram Railway Station, Nanmangalam, Chennai"
NGO Colony,66,stop1,NGO Colony Dept,12.9954005,80.2073814,12.995353636311995,80.20737111219657,"Ramapuram, N.G.O. Colony, Ganesh Nagar, Adambakkam, Chennai, Tamil Nadu 600088, India",ChIJZ7Bffl5nUjoRLw5FzWF-cKI,"NGO Colony Dept, NGO Colony, Chennai"
NGO Colony,66,stop2,Kakkanpalam,12.9954005,80.2073814,12.995353636311995,80.20737111219657,"Ramapuram, N.G.O. Colony, Ganesh Nagar, Adambakkam, Chennai, Tamil Nadu 600088, India",ChIJZ7Bffl5nUjoRLw5FzWF-cKI,"Kakkanpalam, NGO Colony, Chennai"
NGO Colony,66,stop3,Arun Ice Parler,12.9954005,80.2073814,12.995353636311995,80.20737111219657,"Ramapuram, N.G.O. Colony, Ganesh Nagar, Adambakkam, Chennai, Tamil Nadu 600088, India",ChIJZ7Bffl5nUjoRLw5FzWF-cKI,"Arun Ice Parler, NGO Colony, Chennai"
NGO Colony,66,stop4,Prem Care Hospital,12.9954005,80.2073814,12.995353636311995,80.20737111219657,"Ramapuram, N.G.O. Colony, Ganesh Nagar, Adambakkam, Chennai, Tamil Nadu 600088, India",ChIJZ7Bffl5nUjoRLw5FzWF-cKI,"Prem Care Hospital, NGO Colony, Chennai"
NGO Colony,66,stop5,Puzuthiwakkam Road,13.0685193,80.2201335,13.0685193,80.2201335,"Main Rd, Chennai, Tamil Nadu, India",EiNNYWluIFJkLCBDaGVubmFpLCBUYW1pbCBOYWR1LCBJbmRpYSIuKiwKFAoSCWEZSy-UZlI6EY-g8ivkz97fEhQKEgk_B7eWkWZSOhE3F9gKOv5f3A,"Puzuthiwakkam Road, NGO Colony, Chennai"
NGO Colony,66,stop6,Sakthi Cars,12.9954005,80.2073814,12.995353636311995,80.20737111219657,"Ramapuram, N.G.O. Colony, Ganesh Nagar, Adambakkam, Chennai, Tamil Nadu 600088, India",ChIJZ7Bffl5nUjoRLw5FzWF-cKI,"Sakthi Cars, NGO Colony, Chennai"
Adambakkam,67,stop1,Thandeeswarm Bus Stop,12.9830196,80.2219195,12.98297116029253,80.22201942462421,"Dhandeeswaram, Velachery Rd, Ram Nagar, Murugapakkam, Dhadeswaram Nagar, Velachery, Chennai, Tamil Nadu 600042, India",ChIJZbxH5IVdUjoRYZHQCQfRc3Y,"Thandeeswarm Bus Stop, Adambakkam, Chennai"
Adambakkam,67,stop2,Gandhi Road,12.9899344,80.2162744,12.9899344,80.2162744,"Gandhi St, Velachery, Chennai, Tamil Nadu 600042, India",ChIJYbGuEGJnUjoRJgGwSPVdrcg,"Gandhi Road, Adambakkam, Chennai"
Adambakkam,67,stop3,Race Course Road,13.0090327,80.2160634,13.009032699999997,80.2160634,"Race Course Rd, Guindy, Chennai, Tamil Nadu 600032, India",ChIJs7Wdw2tnUjoRrLQd8O_m8do,"Race Course Road, Adambakkam, Chennai"
Adambakkam,67,stop4,NGO Colony,12.9954005,80.2073814,12.995353636311995,80.20737111219657,"Ramapuram, N.G.O. Colony, Ganesh Nagar, Adambakkam, Chennai, Tamil Nadu 600088, India",ChIJZ7Bffl5nUjoRLw5FzWF-cKI,"NGO Colony, Adambakkam, Chennai"
Adambakkam,67,stop5,St.Thomas Mount Rly Station,12.9951363,80.1986701,12.995409067537201,80.1985661718571,"St. Thomas Mount Metro, Pedestrian Opas, Ramapuram, Collectors Nagar, Pazhavanthangal, Chennai, Tamil Nadu 600016, India",ChIJB6-nE1pnUjoR_PehyrSTZFA,"St.Thomas Mount Rly Station, Adambakkam, Chennai"
Adambakkam,67,stop6,Jayalakshmi Theatre,12.9905382,80.1987521,12.9904724,80.1987232,"Jayalakshmi Theatre, Old, Medavakkam Main Rd, Parthasarathy Nagar, Adambakkam, Chennai, Tamil Nadu 600088, India",ChIJF85MKFhnUjoRBP0l-qhsSJY,"Jayalakshmi Theatre, Adambakkam, Chennai"
Adambakkam,67,stop7,Thillaiganga nagar subway,12.992082,80.19346259999999,12.992078479775294,80.19343229707111,"X5RV+R9P Thillaiganga Nagar Subway, Thillaiganga Nagar, Nanganallur, Chennai, Tamil Nadu 600061, India",ChIJgV5OmVZnUjoRdbbAQg1usJQ,"Thillaiganga nagar subway, Adambakkam, Chennai"
Sholinganallur (OMR),68,stop1,Sholinganallur,12.8938782,80.2276526,12.8938782,80.2276526,"Rajiv Gandhi Salai, Sholinganallur, Chennai, Tamil Nadu, India",Ej5SYWppdiBHYW5kaGkgU2FsYWksIFNob2xpbmdhbmFsbHVyLCBDaGVubmFpLCBUYW1pbCBOYWR1LCBJbmRpYSIuKiwKFAoSCR0ApFm7VFI6ESi1-36HGEHZEhQKEgkbOH_eeVtSOhEbP_6K1C27_w,"Sholinganallur, Sholinganallur (OMR), Chennai"
Sholinganallur (OMR),68,stop2,Saravana Stores,12.9094955,80.22938649999999,12.909623821255238,80.22940462866508,"Saravana Stores, Saravana Stores, Rajiv Gandhi Salai, Sholinganallur, Chennai, Tamil Nadu 600119, India",ChIJ9ax11nxcUjoRU31ycFCLr0Q,"Saravana Stores, Sholinganallur (OMR), Chennai"
Sholinganallur (OMR),68,stop3,Karapakkam Bus Stop,12.8938782,80.2276526,12.8938782,80.2276526,"Rajiv Gandhi Salai, Sholinganallur, Chennai, Tamil Nadu, India",Ej5SYWppdiBHYW5kaGkgU2FsYWksIFNob2xpbmdhbmFsbHVyLCBDaGVubmFpLCBUYW1pbCBOYWR1LCBJbmRpYSIuKiwKFAoSCR0ApFm7VFI6ESi1-36HGEHZEhQKEgkbOH_eeVtSOhEbP_6K1C27_w,"Karapakkam Bus Stop, Sholinganallur (OMR), Chennai"
Sholinganallur (OMR),68,stop4,RRE Bus Stop,12.9141981,80.1697635,12.914210728544546,80.16971828495349,"W579+MWC, Santhosapuram Cross Rd, Santhosapuram, Vengavasal, Chennai, Tamil Nadu 600100, India",ChIJSRK3RwBfUjoRB7FYNmdEerw,"RRE Bus Stop, Sholinganallur (OMR), Chennai"
Sholinganallur (OMR),68,stop5,Thorapakkam,12.8938782,80.2276526,12.8938782,80.2276526,"Rajiv Gandhi Salai, Sholinganallur, Chennai, Tamil Nadu, India",Ej5SYWppdiBHYW5kaGkgU2FsYWksIFNob2xpbmdhbmFsbHVyLCBDaGVubmFpLCBUYW1pbCBOYWR1LCBJbmRpYSIuKiwKFAoSCR0ApFm7VFI6ESi1-36HGEHZEhQKEgkbOH_eeVtSOhEbP_6K1C27_w,"Thorapakkam, Sholinganallur (OMR), Chennai"
Sholinganallur (OMR),68,stop6,Perunkudi,12.9639586,80.2468417,12.963958600000003,80.24684169999999,"Rajiv Gandhi Salai, Perungudi, Chennai, Tamil Nadu, India",EjlSYWppdiBHYW5kaGkgU2FsYWksIFBlcnVuZ3VkaSwgQ2hlbm5haSwgVGFtaWwgTmFkdSwgSW5kaWEiLiosChQKEgkdAKRZu1RSOhEotft-hxhB2RIUChIJl2R0wAxdUjoRynUiR2DfaBM,"Perunkudi, Sholinganallur (OMR), Chennai"
Sholinganallur (OMR),68,stop7,MGR Road,12.8972406,80.2303513,12.8972406,80.2303513,"MGR Rd, Sholinganallur, Chennai, Tamil Nadu 600119, India",ChIJD1WqZoBbUjoR2G06Muak24I,"MGR Road, Sholinganallur (OMR), Chennai"
Sholinganallur (OMR),68,stop8,Thramani Rly Station,12.9786281,80.2409395,12.9788994,80.24094509999999,"Taramani, Periyar Nagar, Tharamani, Chennai, Tamil Nadu 600113, India",ChIJQ-o6gnpdUjoRRUMTF4zzTdU,"Thramani Rly Station, Sholinganallur (OMR), Chennai"
Sholinganallur (OMR),68,stop9,Baby Nagar,12.9139806,80.2293986,12.9139806,80.2293986,"Rajiv Gandhi Salai, Chennai, Tamil Nadu, India",Ei5SYWppdiBHYW5kaGkgU2FsYWksIENoZW5uYWksIFRhbWlsIE5hZHUsIEluZGlhIi4qLAoUChIJHQCkWbtUUjoRKLX7focYQdkSFAoSCWEzfU_qZVI6ETPUY2gLp2Fu,"Baby Nagar, Sholinganallur (OMR), Chennai"
Sholinganallur (OMR),68,stop10,Tanci Nagar,12.8986182,80.2297212,12.8986182,80.2297212,"Ganesh Nagar, Ezhil Nagar, Sholinganallur, Chennai, Tamil Nadu 600119, India",ChIJvyEch39cUjoRnHL0vvCN8JY,"Tanci Nagar, Sholinganallur (OMR), Chennai"
Sholinganallur (OMR),68,stop11,Vijaya Nagar Kajana Jewlers,12.9139806,80.2293986,12.9139806,80.2293986,"Rajiv Gandhi Salai, Chennai, Tamil Nadu, India",Ei5SYWppdiBHYW5kaGkgU2FsYWksIENoZW5uYWksIFRhbWlsIE5hZHUsIEluZGlhIi4qLAoUChIJHQCkWbtUUjoRKLX7focYQdkSFAoSCWEzfU_qZVI6ETPUY2gLp2Fu,"Vijaya Nagar Kajana Jewlers, Sholinganallur (OMR), Chennai"
Kovilampakkam,69,stop1,Kovilambakkam,12.9479021,80.1943357,12.947910767882512,80.19433497641114,"Kovilambakkam, Viduthalai Nagar, Kovilambakkam, Chennai, Tamil Nadu 600129, India",ChIJq9tx89NdUjoRihBspqBqPHw,"Kovilambakkam, Kovilampakkam, Chennai"
Kovilampakkam,69,stop2,Kaiveli Signal,12.963665,80.21530700000001,12.963699338159854,80.21531508718317,"Kaiveli, 18, Agasthiar St, Ram Nagar Police check post, Ram Nagar, Madipakkam, Chennai, Tamil Nadu 600042, India",ChIJ7fG80b1dUjoRXxVT2tgvoZQ,"Kaiveli Signal, Kovilampakkam, Chennai"
Kovilampakkam,69,stop3,Vanuvampet Perumal Kovil,12.9389558,80.1760669,12.9389558,80.1760669,"Perumal Koil St, Vijayalakshmi Nagar, Kovilambakkam, Chennai, Tamil Nadu 600129, India",ElZQZXJ1bWFsIEtvaWwgU3QsIFZpamF5YWxha3NobWkgTmFnYXIsIEtvdmlsYW1iYWtrYW0sIENoZW5uYWksIFRhbWlsIE5hZHUgNjAwMTI5LCBJbmRpYSIuKiwKFAoSCY2ihDKGXlI6EZ6HzGO93nF9EhQKEglv109BzV1SOhH_sl0SN4f8ug,"Vanuvampet Perumal Kovil, Kovilampakkam, Chennai"
Kovilampakkam,69,stop4,Nayara Petrol Bunk,12.9958373,80.19359039999999,12.995834567727004,80.1934393809334,"10, Hopman 2nd St, Ramapuram, Thiruvalluvar Nagar, Alandur, Chennai, Tamil Nadu 600016, India",ChIJSTNv7TRnUjoR0dGOOpZOHfM,"Nayara Petrol Bunk, Kovilampakkam, Chennai"
Pallavaram Bus Stand,70,stop1,Pallavaram Bus Stand,12.9692343,80.1502144,12.969290505941578,80.15008899279023,"Chennai - Theni Hwy, Pallavaram, Sriperumbudur Pallavaram, Chennai, Tamil Nadu 600043, India",ChIJEbB64xBfUjoR9c-xPHzS26Y,"Pallavaram Bus Stand, Pallavaram Bus Stand, Chennai"
Pallavaram Bus Stand,70,stop2,Pallavaram Ponds Singal,12.9692343,80.1502144,12.969290505941578,80.15008899279023,"Chennai - Theni Hwy, Pallavaram, Sriperumbudur Pallavaram, Chennai, Tamil Nadu 600043, India",ChIJEbB64xBfUjoR9c-xPHzS26Y,"Pallavaram Ponds Singal, Pallavaram Bus Stand, Chennai"
Pallavaram Bus Stand,70,stop3,nagalkeni (Nayara Petrol Bunk),12.9645898,80.13588,12.9647397,80.13588179999999,"Nagalkeni, Chromepet, Chennai, Tamil Nadu, India",ChIJv-VAL7ZfUjoRi2RyyQ8s2h8,"nagalkeni (Nayara Petrol Bunk), Pallavaram Bus Stand, Chennai"
Pallavaram Bus Stand,70,stop4,nagalkeni Erikarai,12.9692343,80.1502144,12.969290505941578,80.15008899279023,"Chennai - Theni Hwy, Pallavaram, Sriperumbudur Pallavaram, Chennai, Tamil Nadu 600043, India",ChIJEbB64xBfUjoR9c-xPHzS26Y,"nagalkeni Erikarai, Pallavaram Bus Stand, Chennai"
Keelkatalai,71,stop1,Echangadu Singal,12.9491632,80.1852782,12.949184082663034,80.18527936552549,"Eachangadu, W5XP+M46, Sri Ambal Nagar, Keelkattalai, Chennai, Tamil Nadu 600117, India",ChIJZS_EMwtfUjoRU9-L-R0uWw8,"Echangadu Singal, Keelkatalai, Chennai"
Keelkatalai,71,stop2,Kaiveli Singal,12.963665,80.21530700000001,12.963699338159854,80.21531508718317,"Kaiveli, 18, Agasthiar St, Ram Nagar Police check post, Ram Nagar, Madipakkam, Chennai, Tamil Nadu 600042, India",ChIJ7fG80b1dUjoRXxVT2tgvoZQ,"Kaiveli Singal, Keelkatalai, Chennai"
Keelkatalai,71,stop3,Vanuvampet Perumal Kovil,12.9558206,80.1834712,12.9558206,80.1834712,"Perumal Koil St, Bhaskar Nagar, Keelkattalai, Chennai, Tamil Nadu 600117, India",ChIJoxMkFXdeUjoR6JdUvUAyx6A,"Vanuvampet Perumal Kovil, Keelkatalai, Chennai"
Keelkatalai,71,stop4,Nagalkeni,12.9556074,80.1868681,12.955613858085503,80.18686912537736,"Keelkattalai, Chennai, Tamil Nadu, India",ChIJMwRGU3FeUjoRCz27k50WcP8,"Nagalkeni, Keelkatalai, Chennai"
Keelkatalai,71,stop5,Thiruneermalai Erikarai,12.9652088,80.1832876,12.965208795935919,80.18328763352277,"Erikarai St, Moovarasanpet, Keelkattalai, Chennai, St.Thomas Mount-cum-Pallavaram, Tamil Nadu 600091, India",EmtFcmlrYXJhaSBTdCwgTW9vdmFyYXNhbnBldCwgS2VlbGthdHRhbGFpLCBDaGVubmFpLCBTdC5UaG9tYXMgTW91bnQtY3VtLVBhbGxhdmFyYW0sIFRhbWlsIE5hZHUgNjAwMDkxLCBJbmRpYSIuKiwKFAoSCe9DTQoLXlI6EXtPhJ3SqD3CEhQKEgkzBEZTcV5SOhELPbuTnRZw_w,"Thiruneermalai Erikarai, Keelkatalai, Chennai"
Keelkatalai,71,stop6,Thirumudivakkam,12.9556074,80.1868681,12.955613858085503,80.18686912537736,"Keelkattalai, Chennai, Tamil Nadu, India",ChIJMwRGU3FeUjoRCz27k50WcP8,"Thirumudivakkam, Keelkatalai, Chennai"
Nanganallur,72,stop1,Moovarasampettai kulam,12.9661518,80.1844225,12.9661541614987,80.18460023655456,"Moovarasanpet, Bharathiyar Nagar, Madipakkam, St.Thomas Mount-cum-Pallavaram, Tamil Nadu 600091, India",ChIJC35POwteUjoR1gvn8T45iYs,"Moovarasampettai kulam, Nanganallur, Chennai"
Nanganallur,72,stop2,JK Mahal,12.9761394,80.18305529999999,12.976337423495202,80.18304599560734,"X5GM+F63, State Bank Colony 1st Main Rd, Hindu Colony, Nanganallur, Chennai, Tamil Nadu 600061, India",ChIJJ5TQqAheUjoROAR3LIgy2WI,"JK Mahal, Nanganallur, Chennai"
Nanganallur,72,stop3,Nanganallur Bus Stand,13.0464305,80.201915,13.04643090348649,80.20188762782865,"Passport Seva Kendra, Bharani Colony, Vijayaraghavapuram, Saligramam, Chennai, Tamil Nadu 600093, India",ChIJqzX3YQBnUjoRuD3qmLkSzBs,"Nanganallur Bus Stand, Nanganallur, Chennai"
Nanganallur,72,stop4,Ranga theatre,12.9764568,80.1832859,12.976455721884985,80.18326398746902,"X5GM+H8M, M.G.R. Rd, Telegraph Colony, Nanganallur, Chennai, Tamil Nadu 600061, India",ChIJXW7lHwZeUjoRx1CEOsFu4Y4,"Ranga theatre, Nanganallur, Chennai"
Nanganallur,72,stop5,Independence Park,12.9812002,80.1858056,12.981499320477043,80.18583598375405,"Independence Day Park, 3, 6th Main Rd, TNGO Colony, Nanganallur, Chennai, Tamil Nadu 600061, India",ChIJnWhAOQdeUjoRtvJMHyT6bXg,"Independence Park, Nanganallur, Chennai"
VGP (ECR),73,stop1,VGB,12.914221,80.25052400000001,12.91423144215752,80.25039881112288,"VGP Universal Kingdom, SH 49, Injambakkam, Chennai, Tamil Nadu 600115, India",ChIJNYWlz-dcUjoRLx2FG0jgw5Y,"VGB, VGP (ECR), Chennai"
VGP (ECR),73,stop2,Vettuvakani,12.914221,80.25052400000001,12.91423144215752,80.25039881112288,"VGP Universal Kingdom, SH 49, Injambakkam, Chennai, Tamil Nadu 600115, India",ChIJNYWlz-dcUjoRLx2FG0jgw5Y,"Vettuvakani, VGP (ECR), Chennai"
VGP (ECR),73,stop3,Neelankarai Puhari,12.914221,80.25052400000001,12.91423144215752,80.25039881112288,"VGP Universal Kingdom, SH 49, Injambakkam, Chennai, Tamil Nadu 600115, India",ChIJNYWlz-dcUjoRLx2FG0jgw5Y,"Neelankarai Puhari, VGP (ECR), Chennai"
VGP (ECR),73,stop4,Neelankarai Police Station,12.914221,80.25052400000001,12.91423144215752,80.25039881112288,"VGP Universal Kingdom, SH 49, Injambakkam, Chennai, Tamil Nadu 600115, India",ChIJNYWlz-dcUjoRLx2FG0jgw5Y,"Neelankarai Police Station, VGP (ECR), Chennai"
VGP (ECR),73,stop5,Palavakkam Anoty Church,12.914221,80.25052400000001,12.91423144215752,80.25039881112288,"VGP Universal Kingdom, SH 49, Injambakkam, Chennai, Tamil Nadu 600115, India",ChIJNYWlz-dcUjoRLx2FG0jgw5Y,"Palavakkam Anoty Church, VGP (ECR), Chennai"
VGP (ECR),73,stop6,Palavakkam Periyar Street,12.914221,80.25052400000001,12.91423144215752,80.25039881112288,"VGP Universal Kingdom, SH 49, Injambakkam, Chennai, Tamil Nadu 600115, India",ChIJNYWlz-dcUjoRLx2FG0jgw5Y,"Palavakkam Periyar Street, VGP (ECR), Chennai"
VGP (ECR),73,stop7,Kotivakkam Bus Stop,12.914221,80.25052400000001,12.91423144215752,80.25039881112288,"VGP Universal Kingdom, SH 49, Injambakkam, Chennai, Tamil Nadu 600115, India",ChIJNYWlz-dcUjoRLx2FG0jgw5Y,"Kotivakkam Bus Stop, VGP (ECR), Chennai"
VGP (ECR),73,stop8,Thiruvanmiur RTO Office,12.9773017,80.259416,12.977283334341143,80.25958072615028,"38, SH 49, Valmiki Nagar, Thiruvalluvar Nagar, Thiruvanmiyur, Chennai, Tamil Nadu 600041, India",ChIJ0bMqZkNdUjoRBIIZY6t6YBI,"Thiruvanmiur RTO Office, VGP (ECR), Chennai"
VGP (ECR),73,stop9,Murutheswarar Koil,12.914221,80.25052400000001,12.91423144215752,80.25039881112288,"VGP Universal Kingdom, SH 49, Injambakkam, Chennai, Tamil Nadu 600115, India",ChIJNYWlz-dcUjoRLx2FG0jgw5Y,"Murutheswarar Koil, VGP (ECR), Chennai"
VGP (ECR),73,stop10,Thiruvanmiur Depot,12.914221,80.25052400000001,12.91423144215752,80.25039881112288,"VGP Universal Kingdom, SH 49, Injambakkam, Chennai, Tamil Nadu 600115, India",ChIJNYWlz-dcUjoRLx2FG0jgw5Y,"Thiruvanmiur Depot, VGP (ECR), Chennai"
VGP (ECR),73,stop11,Thiruvanmiur Signal,12.914221,80.25052400000001,12.91423144215752,80.25039881112288,"VGP Universal Kingdom, SH 49, Injambakkam, Chennai, Tamil Nadu 600115, India",ChIJNYWlz-dcUjoRLx2FG0jgw5Y,"Thiruvanmiur Signal, VGP (ECR), Chennai"
VGP (ECR),73,stop12,Tidel Park,12.9895733,80.24859830000001,12.989399008875107,80.2485821851064,"TIDEL Park, Rajiv Gandhi IT Expy, Tharamani, Chennai, Tamil Nadu 600113, India",ChIJuU_lAmJdUjoRfowQyarAX88,"Tidel Park, VGP (ECR), Chennai"
VGP (ECR),73,stop13,Butt Road,13.0085648,80.1969599,13.0085648,80.1969599,"Butt Rd, Ramapuram, Chennai, Tamil Nadu 600016, India",ChIJ1dnW7k5nUjoRPWzLVmHCOwE,"Butt Road, VGP (ECR), Chennai"
VGP (ECR),73,stop14,Sangeetha Hotel Signal,12.914221,80.25052400000001,12.91423144215752,80.25039881112288,"VGP Universal Kingdom, SH 49, Injambakkam, Chennai, Tamil Nadu 600115, India",ChIJNYWlz-dcUjoRLx2FG0jgw5Y,"Sangeetha Hotel Signal, VGP (ECR), Chennai"
VGP (ECR),73,stop15,Kumanan Chavadi Petrol Bunk,13.0464072,80.1154737,13.046332413563915,80.11546096083468,"Kumananchavadi, Chennai, Tamil Nadu 600056, India",ChIJS2PlxMZhUjoR-G9kf_7rBJI,"Kumanan Chavadi Petrol Bunk, VGP (ECR), Chennai"
Adyar,74,stop1,Indra Nagar Water Tank,12.995376,80.253022,12.99541202344287,80.2529686691756,"Indira Nagar Water Tank, 2nd Ave, Indira Nagar, Adyar, Chennai, Tamil Nadu 600020, India",ChIJU5djaItnUjoRY6VMAaE2i_g,"Indra Nagar Water Tank, Adyar, Chennai"
Adyar,74,stop2,Besant Nagar,13.0002927,80.2666982,13.000389777510025,80.26670587782532,"Besant Nagar, Chennai, Tamil Nadu, India",ChIJqdwM3_pnUjoR_T7r84eFIlQ,"Besant Nagar, Adyar, Chennai"
Adyar,74,stop3,BSNL Office Adyar,13.0011774,80.2564957,13.001179993242216,80.25647091000342,"Venkata Rathinam Nagar, Adyar, Chennai, Tamil Nadu 600020, India",ChIJnY6BDV5dUjoRhCSLchpTsss,"BSNL Office Adyar, Adyar, Chennai"
Adyar,74,stop4,Adyar Signal,13.007164,80.258871,13.007223866046097,80.25884692673549,"Adyar Signal, 7, Lattice Bridge Rd, Padmanabha Nagar, ADYAR, Padmanabha Nagar, Adyar, Chennai, Tamil Nadu 600020, India",ChIJi64LcuxnUjoRBqITGZIi33A,"Adyar Signal, Adyar, Chennai"
Adyar,74,stop5,Adyar Bus Stand (Ambica Appalam),13.006475,80.2518152,13.006475905142173,80.25168677104215,"1, Kasturba Nagar 3rd Cross St, Kasturba Nagar, Adyar, Chennai, Tamil Nadu 600020, India",ChIJwzKIdZNnUjoRRa0-6XkiwHc,"Adyar Bus Stand (Ambica Appalam), Adyar, Chennai"
Adyar,74,stop6,Madhya Kailash,13.006075,80.2474448,13.006074525887186,80.24749389438068,"Madhya Kailash, Rajiv Gandhi IT Expy, Sriram Nagar, Adyar, Chennai, Tamil Nadu 600020, India",ChIJ__xeR5FnUjoRmkyrCMn5K9k,"Madhya Kailash, Adyar, Chennai"
Adyar,74,stop7,Balaji hospital (Guindy),13.007323,80.206018,13.007173,80.20609499999999,"1, Lawyer Jaganathan St, Ramapuram, Guindy, Chennai, Tamil Nadu 600032, India",ChIJkfpaXnJnUjoRAGeNH4Oxnx0,"Balaji hospital (Guindy), Adyar, Chennai"
Adyar,74,stop8,Butt Road,13.0085648,80.1969599,13.0085648,80.1969599,"Butt Rd, Ramapuram, Chennai, Tamil Nadu 600016, India",ChIJ1dnW7k5nUjoRPWzLVmHCOwE,"Butt Road, Adyar, Chennai"
Triplicane,75,stop1,D1 Police Station,13.0682398,80.2725057,13.068296386334206,80.2726154817159,"379F+72R, Wallahjah Rd, Mount Road, Anna Salai, Triplicane, Chennai, Tamil Nadu 600002, India",ChIJ_4IiTBxmUjoRr_gxCg-q6xI,"D1 Police Station, Triplicane, Chennai"
Triplicane,75,stop2,Rathna Café,13.0587341,80.2740342,13.058718159708977,80.27418236669986,"Triplicane High Rd, Triplicane, Chennai, Tamil Nadu 600005, India",ChIJh3v2BCFmUjoRf9LUqZWAxeQ,"Rathna Café, Triplicane, Chennai"
Triplicane,75,stop3,ICE House,13.0529573,80.273162,13.05293183706498,80.27315656467596,"Ice House, Chennai, Tamil Nadu, India",ChIJZX5HxSZmUjoRWS2rrMyQIUM,"ICE House, Triplicane, Chennai"
Triplicane,75,stop4,Meesapet Market,13.0534665,80.26896599999999,13.053479267141107,80.26896745047755,"Meesapet Market, Royapettah, Chennai, Tamil Nadu 600014, India",ChIJJ55IeCRmUjoRC7hT92XROBc,"Meesapet Market, Triplicane, Chennai"
Triplicane,75,stop5,New College,13.0541684,80.2590183,13.054276053896219,80.25902882906138,"New No. 147, Old No. 87, Peter's Rd, Peters Colony, Royapettah, Chennai, Tamil Nadu 600014, India",ChIJYc4a-jtmUjoRAuEMNJpHu2A,"New College, Triplicane, Chennai"
Triplicane,75,stop6,Fire Office,13.097115,80.244345,13.097046380552069,80.24433610242963,"Fire Office, Pananthope Colony, Ayanavaram, Chennai, Tamil Nadu 600012, India",ChIJAen268VlUjoRg40_oZcm70w,"Fire Office, Triplicane, Chennai"
Teynampet,76,stop1,Teynampet Signal,13.039157,80.2470897,13.039173848006394,80.2470141791644,"429, Anna Salai, Teynampet, Chennai, Tamil Nadu 600018, India",ChIJgdWoa-5nUjoRiejTdsTygO8,"Teynampet Signal, Teynampet, Chennai"
Teynampet,76,stop2,Teynampet Metro,13.0373532,80.2466509,13.03735679817673,80.24663478780566,"Teynampet, MA Garden, Teynampet, Chennai, Tamil Nadu 600018, India",ChIJ8aYz8ExmUjoRaqJVoJ05rIc,"Teynampet Metro, Teynampet, Chennai"
Teynampet,76,stop3,Nandanam Signal,13.0309697,80.2396235,13.03092272253781,80.23965028640113,"Nandanam Signal, CIT Nagar East, CIT Nagar, Chennai, Tamil Nadu 600035",ChIJpX7_OKxnUjoRnFKuvK4L7Uk,"Nandanam Signal, Teynampet, Chennai"
Teynampet,76,stop4,Nandanam Fire Office,13.097115,80.244345,13.097046380552069,80.24433610242963,"Fire Office, Pananthope Colony, Ayanavaram, Chennai, Tamil Nadu 600012, India",ChIJAen268VlUjoRg40_oZcm70w,"Nandanam Fire Office, Teynampet, Chennai"
Teynampet,76,stop5,Saidapet (Metro Station),13.023618,80.22810799999999,13.023739033704548,80.22800376143948,"Saidapet, Nandanam, Chennai, Tamil Nadu 600015, India",ChIJZ89YJwZnUjoRWA3-FD3sGys,"Saidapet (Metro Station), Teynampet, Chennai"
Teynampet,76,stop6,Kalaignar Arch,13.0657678,80.28410319999999,13.065802431688661,80.2839715704537,"D6, Santhome High Rd, Navalar Nagar, Chepauk, Triplicane, Chennai, Tamil Nadu 600005, India",ChIJT1lNFgBpUjoRZiAEOXj0mIg,"Kalaignar Arch, Teynampet, Chennai"
Teynampet,76,stop7,Chinnamalai Court,13.01143,80.22743,13.01142099056471,80.22740510544408,"Chinna Malai, Venkta Puram, Saidapet, Chennai, Tamil Nadu 600015, India",ChIJq-x9unRnUjoRsPXmRvSG1Lc,"Chinnamalai Court, Teynampet, Chennai"
Pattinapakkam,77,stop1,Airtel Office,13.0300565,80.27708109999999,13.03016811393226,80.27709742110848,"Pattinapakkam, Kuil Thoppu, Mylapore, Chennai, Tamil Nadu, India",ChIJhzR7oHhoUjoR0NSN7MTJk9g,"Airtel Office, Pattinapakkam, Chennai"
Pattinapakkam,77,stop2,Mandaveli Bus Depot,13.0300565,80.27708109999999,13.03016811393226,80.27709742110848,"Pattinapakkam, Kuil Thoppu, Mylapore, Chennai, Tamil Nadu, India",ChIJhzR7oHhoUjoR0NSN7MTJk9g,"Mandaveli Bus Depot, Pattinapakkam, Chennai"
Pattinapakkam,77,stop3,Devanathan Street,13.0279762,80.2637342,13.027976200000001,80.2637342,"Devanathan St, Jeth Nagar, Mandaveli, Chennai, Tamil Nadu 600028, India",ChIJX7psTM5nUjoRoktbqDGt3iw,"Devanathan Street, Pattinapakkam, Chennai"
Pattinapakkam,77,stop4,Mandaveli Post office,13.0300565,80.27708109999999,13.03016811393226,80.27709742110848,"Pattinapakkam, Kuil Thoppu, Mylapore, Chennai, Tamil Nadu, India",ChIJhzR7oHhoUjoR0NSN7MTJk9g,"Mandaveli Post office, Pattinapakkam, Chennai"
Pattinapakkam,77,stop5,Billrtoth Hospital,13.0300565,80.27708109999999,13.03016811393226,80.27709742110848,"Pattinapakkam, Kuil Thoppu, Mylapore, Chennai, Tamil Nadu, India",ChIJhzR7oHhoUjoR0NSN7MTJk9g,"Billrtoth Hospital, Pattinapakkam, Chennai"
Pattinapakkam,77,stop6,C.P.Ramasamy Road,13.0300565,80.27708109999999,13.03016811393226,80.27709742110848,"Pattinapakkam, Kuil Thoppu, Mylapore, Chennai, Tamil Nadu, India",ChIJhzR7oHhoUjoR0NSN7MTJk9g,"C.P.Ramasamy Road, Pattinapakkam, Chennai"
Pattinapakkam,77,stop7,TTK Road,13.0300565,80.27708109999999,13.03016811393226,80.27709742110848,"Pattinapakkam, Kuil Thoppu, Mylapore, Chennai, Tamil Nadu, India",ChIJhzR7oHhoUjoR0NSN7MTJk9g,"TTK Road, Pattinapakkam, Chennai"
Pattinapakkam,77,stop8,Kaliappa Hospital,13.0300565,80.27708109999999,13.03016811393226,80.27709742110848,"Pattinapakkam, Kuil Thoppu, Mylapore, Chennai, Tamil Nadu, India",ChIJhzR7oHhoUjoR0NSN7MTJk9g,"Kaliappa Hospital, Pattinapakkam, Chennai"
Pattinapakkam,77,stop9,Adyar Gate Hotel,13.0300565,80.27708109999999,13.03016811393226,80.27709742110848,"Pattinapakkam, Kuil Thoppu, Mylapore, Chennai, Tamil Nadu, India",ChIJhzR7oHhoUjoR0NSN7MTJk9g,"Adyar Gate Hotel, Pattinapakkam, Chennai"
Pattinapakkam,77,stop10,Kotturpuram,13.0300565,80.27708109999999,13.03016811393226,80.27709742110848,"Pattinapakkam, Kuil Thoppu, Mylapore, Chennai, Tamil Nadu, India",ChIJhzR7oHhoUjoR0NSN7MTJk9g,"Kotturpuram, Pattinapakkam, Chennai"
Santhome (Light house),78,stop1,Pattinapakkam Signal,13.0300565,80.27708109999999,13.03016811393226,80.27709742110848,"Pattinapakkam, Kuil Thoppu, Mylapore, Chennai, Tamil Nadu, India",ChIJhzR7oHhoUjoR0NSN7MTJk9g,"Pattinapakkam Signal, Santhome (Light house), Chennai"
Santhome (Light house),78,stop2,Santhome Church,13.0335957,80.27768940000001,13.033400178867732,80.27765214465022,"38, Santhome High Rd, Santhome, Mylapore, Chennai, Tamil Nadu 600004, India",ChIJH7hVUn9oUjoR3pS3Si7dSKE,"Santhome Church, Santhome (Light house), Chennai"
Santhome (Light house),78,stop3,Light House,13.0319017,80.2788229,13.031834940357724,80.27881408763979,"Santhome, Chennai, Tamil Nadu, India",ChIJvXurN4FoUjoRguQros3ySSM,"Light House, Santhome (Light house), Chennai"
Santhome (Light house),78,stop4,Jain Temple,13.0319017,80.2788229,13.031834940357724,80.27881408763979,"Santhome, Chennai, Tamil Nadu, India",ChIJvXurN4FoUjoRguQros3ySSM,"Jain Temple, Santhome (Light house), Chennai"
Santhome (Light house),78,stop5,Luz Corner,13.0319017,80.2788229,13.031834940357724,80.27881408763979,"Santhome, Chennai, Tamil Nadu, India",ChIJvXurN4FoUjoRguQros3ySSM,"Luz Corner, Santhome (Light house), Chennai"
Santhome (Light house),78,stop6,Vivekanada College,13.0319017,80.2788229,13.031834940357724,80.27881408763979,"Santhome, Chennai, Tamil Nadu, India",ChIJvXurN4FoUjoRguQros3ySSM,"Vivekanada College, Santhome (Light house), Chennai"
Santhome (Light house),78,stop7,Ajantha Bridge,13.09,80.27,13.09002222485358,80.27000978403497,"37R9+2X5, Raja Muthiah Rd, Periamet, Kannappar Thidal, Chennai, Tamil Nadu 600003, India",ChIJh337s7JlUjoROFSa0O6NXdY,"Ajantha Bridge, Santhome (Light house), Chennai"
Santhome (Light house),78,stop8,New Woodlands,13.0319017,80.2788229,13.031834940357724,80.27881408763979,"Santhome, Chennai, Tamil Nadu, India",ChIJvXurN4FoUjoRguQros3ySSM,"New Woodlands, Santhome (Light house), Chennai"
Santhome (Light house),78,stop9,Music Academy,13.0319017,80.2788229,13.031834940357724,80.27881408763979,"Santhome, Chennai, Tamil Nadu, India",ChIJvXurN4FoUjoRguQros3ySSM,"Music Academy, Santhome (Light house), Chennai"
Santhome (Light house),78,stop10,Stella Marrys College,13.0319017,80.2788229,13.031834940357724,80.27881408763979,"Santhome, Chennai, Tamil Nadu, India",ChIJvXurN4FoUjoRguQros3ySSM,"Stella Marrys College, Santhome (Light house), Chennai"
Nungambakkam (Shastri bhawan),79,stop1,Shastri bhawan,13.0668019,80.2479401,13.066799576792492,80.24796191348557,"Shastri Bhavan, Haddows Rd, Subba Road Avenue, Nungambakkam, Chennai, Tamil Nadu 600006, India",ChIJJz_Ejm5mUjoRbHidq4t9hJ4,"Shastri bhawan, Nungambakkam (Shastri bhawan), Chennai"
Nungambakkam (Shastri bhawan),79,stop2,Taj Coromandel hotel(sterling road),13.0583532,80.2481706,13.058354892694245,80.2481759089583,"37, Uthamar Gandhi Rd, near Makkal TV Office, Nungambakkam, Chennai, Tamil Nadu 600034, India",ChIJoY2RdEJmUjoRcfpd1MDkpMI,"Taj Coromandel hotel(sterling road), Nungambakkam (Shastri bhawan), Chennai"
Nungambakkam (Shastri bhawan),79,stop3,Valluvarkottam,13.0668019,80.2479401,13.066799576792492,80.24796191348557,"Shastri Bhavan, Haddows Rd, Subba Road Avenue, Nungambakkam, Chennai, Tamil Nadu 600006, India",ChIJJz_Ejm5mUjoRbHidq4t9hJ4,"Valluvarkottam, Nungambakkam (Shastri bhawan), Chennai"
Nungambakkam (Shastri bhawan),79,stop4,Periyar salai bus stop,13.0668019,80.2479401,13.066799576792492,80.24796191348557,"Shastri Bhavan, Haddows Rd, Subba Road Avenue, Nungambakkam, Chennai, Tamil Nadu 600006, India",ChIJJz_Ejm5mUjoRbHidq4t9hJ4,"Periyar salai bus stop, Nungambakkam (Shastri bhawan), Chennai"
Nungambakkam (Shastri bhawan),79,stop5,Kodambakkam Bridge,13.054096,80.23093279999999,13.054122265752744,80.23093222709997,"Kodambakkam Bridge, 42, 6th St, Kamaraj Colony, Kodambakkam, Chennai, Tamil Nadu 600024, India",ChIJbSbNlvVmUjoRWvEkoDetNeQ,"Kodambakkam Bridge, Nungambakkam (Shastri bhawan), Chennai"
Nungambakkam (Shastri bhawan),79,stop6,Sekar Emporium,13.0668019,80.2479401,13.066799576792492,80.24796191348557,"Shastri Bhavan, Haddows Rd, Subba Road Avenue, Nungambakkam, Chennai, Tamil Nadu 600006, India",ChIJJz_Ejm5mUjoRbHidq4t9hJ4,"Sekar Emporium, Nungambakkam (Shastri bhawan), Chennai"
Nungambakkam (Shastri bhawan),79,stop7,Five lights junction signal(kodambakkam),13.0448938,80.2257159,13.044850477363433,80.225703957216,"26VG+X74, Chakrapani St, Rangarajapuram, Kodambakkam, Chennai, Tamil Nadu 600024, India",ChIJETdp8d9nUjoRxlBxvwfiI-0,"Five lights junction signal(kodambakkam), Nungambakkam (Shastri bhawan), Chennai"
Nungambakkam (Shastri bhawan),79,stop8,Power House,13.0668019,80.2479401,13.066799576792492,80.24796191348557,"Shastri Bhavan, Haddows Rd, Subba Road Avenue, Nungambakkam, Chennai, Tamil Nadu 600006, India",ChIJJz_Ejm5mUjoRbHidq4t9hJ4,"Power House, Nungambakkam (Shastri bhawan), Chennai"
Nungambakkam (Shastri bhawan),79,stop9,Samiyar Madam,13.0668019,80.2479401,13.066799576792492,80.24796191348557,"Shastri Bhavan, Haddows Rd, Subba Road Avenue, Nungambakkam, Chennai, Tamil Nadu 600006, India",ChIJJz_Ejm5mUjoRbHidq4t9hJ4,"Samiyar Madam, Nungambakkam (Shastri bhawan), Chennai"
Lakshman Sruthi,80,stop1,Vadapalani Bus Stand,13.0506151,80.20510150000001,13.050773791564394,80.20511370752074,"3624+62X andharabank, வடபழனி, சென்னை, தமிழ் நாடு 600026, India",ChIJyeq8vq1nUjoRu0bgBNTJdBM,"Vadapalani Bus Stand, Lakshman Sruthi, Chennai"
Lakshman Sruthi,80,stop2,Lakshman Sruthi,13.0445827,80.212752,13.044550898666923,80.21275302444924,"71, 2nd St, Sarvamangala Colony, Aruna Colony, Ashok Nagar, Chennai, Tamil Nadu 600083, India",ChIJ7xJP1p8Kvo4R39HcCDw1Nlg,"Lakshman Sruthi, Lakshman Sruthi, Chennai"
Lakshman Sruthi,80,stop3,la martin school,13.0445827,80.212752,13.044550898666923,80.21275302444924,"71, 2nd St, Sarvamangala Colony, Aruna Colony, Ashok Nagar, Chennai, Tamil Nadu 600083, India",ChIJ7xJP1p8Kvo4R39HcCDw1Nlg,"la martin school, Lakshman Sruthi, Chennai"
Lakshman Sruthi,80,stop4,Karapakkam,12.9190519,80.2300343,12.919060380234056,80.22997315759119,"Karapakkam, Chennai, Tamil Nadu, India",ChIJm5Z4u4pcUjoRvIlWVqGDAjw,"Karapakkam, Lakshman Sruthi, Chennai"
Lakshman Sruthi,80,stop5,Porur Bus stand,13.0445827,80.212752,13.044550898666923,80.21275302444924,"71, 2nd St, Sarvamangala Colony, Aruna Colony, Ashok Nagar, Chennai, Tamil Nadu 600083, India",ChIJ7xJP1p8Kvo4R39HcCDw1Nlg,"Porur Bus stand, Lakshman Sruthi, Chennai"
Lakshman Sruthi,80,stop6,Kattupakkam (Hyundai showroom),13.0445827,80.212752,13.044550898666923,80.21275302444924,"71, 2nd St, Sarvamangala Colony, Aruna Colony, Ashok Nagar, Chennai, Tamil Nadu 600083, India",ChIJ7xJP1p8Kvo4R39HcCDw1Nlg,"Kattupakkam (Hyundai showroom), Lakshman Sruthi, Chennai"
Saligramam,81,stop1,Surya Hospital,13.048184,80.2034821,13.047907285076583,80.20354811741434,"1, Arunachalam Rd, Velayutham Colony, Saligramam, Chennai, Tamil Nadu 600093, India",ChIJ93vwtw1nUjoRUcABkN0OczQ,"Surya Hospital, Saligramam, Chennai"
Saligramam,81,stop2,Parvathi Bhavan,13.0519714,80.2038659,13.05196323719864,80.20405458530342,"33, Arunachalam Rd, Pushpa Colony, Saligramam, Chennai, Tamil Nadu 600093, India",ChIJXyuzs8ZmUjoRFQSu6mKYM6U,"Parvathi Bhavan, Saligramam, Chennai"
Saligramam,81,stop3,Dasarathapuram,13.057873,80.2031976,13.05787601887837,80.20316831785277,"Dasaratha Puram, Saligramam, Chennai, Tamil Nadu 600093, India",ChIJua-i_sVmUjoR5wnWsaW-Rgw,"Dasarathapuram, Saligramam, Chennai"
Saligramam,81,stop4,Sudharma Mahal,13.05472,80.2012632,13.054723950911944,80.20118680552726,"54, Kalaignar St, Kaveri Rangan nagar, Saligramam, Chennai, Tamil Nadu 600093, India",ChIJs07Wp8dmUjoRyRBYY_VxwVU,"Sudharma Mahal, Saligramam, Chennai"
Saligramam,81,stop5,Kamachi Store,13.0516352,80.170801,13.051531007974026,80.17077992936042,"179, 3rd Main Rd, Sri Krishna Nagar, Alapakkam, Porur, Chennai, Tamil Nadu 600095, India",ChIJJS3q-lhhUjoRCA1WsKRjLpY,"Kamachi Store, Saligramam, Chennai"
Saligramam,81,stop6,Saligramam Bus Stand,13.0539506,80.1969321,13.053940655837966,80.19706405938564,"Padmavati Nagar, Annamalai Colony, Chennai, Tamil Nadu 600092, India",ChIJd0Lro7dnUjoRDgZdyAlTXf4,"Saligramam Bus Stand, Saligramam, Chennai"
Saligramam,81,stop7,AVM Colony,13.0512276,80.1969215,13.051388783462619,80.19692776860597,"AVM Colony, Annamalai Colony, Chennai, Tamil Nadu 600092, India",ChIJTzBdM89mUjoRyHnpVatyfd4,"AVM Colony, Saligramam, Chennai"
Alwarthirunagar,82,stop1,Mega Mart,13.0425511,80.1840192,13.042371129907268,80.18404853466122,"Alwartirunagar, Valasaravakkam, Chennai, Tamil Nadu 600087, India",ChIJEVAQDi5hUjoRgu-bAegeplE,"Mega Mart, Alwarthirunagar, Chennai"
Alwarthirunagar,82,stop2,Valasaravakkam Signal,13.0425511,80.1840192,13.042371129907268,80.18404853466122,"Alwartirunagar, Valasaravakkam, Chennai, Tamil Nadu 600087, India",ChIJEVAQDi5hUjoRgu-bAegeplE,"Valasaravakkam Signal, Alwarthirunagar, Chennai"
Chinmaya Nagar,83,stop1,Natesan Nagar,13.0619853,80.1990136,13.062036893859219,80.19901893236475,"Chinmaya Nagar, Sri Iyappa Nagar, Chennai, Tamil Nadu, India",ChIJ9ZV7iblmUjoRa3wVMONPktg,"Natesan Nagar, Chinmaya Nagar, Chennai"
Chinmaya Nagar,83,stop2,Sai Nagar Bus Stop,13.0619853,80.1990136,13.062036893859219,80.19901893236475,"Chinmaya Nagar, Sri Iyappa Nagar, Chennai, Tamil Nadu, India",ChIJ9ZV7iblmUjoRa3wVMONPktg,"Sai Nagar Bus Stop, Chinmaya Nagar, Chennai"
Chinmaya Nagar,83,stop3,Chinmaya Nagar Bus Stop,13.0619853,80.1990136,13.062036893859219,80.19901893236475,"Chinmaya Nagar, Sri Iyappa Nagar, Chennai, Tamil Nadu, India",ChIJ9ZV7iblmUjoRa3wVMONPktg,"Chinmaya Nagar Bus Stop, Chinmaya Nagar, Chennai"
Elango Nagar,84,stop1,Elango Nagar,13.0924922,80.18680909999999,13.092504798881395,80.1867522996185,"Elango Nagar, Padi, Chennai, Tamil Nadu, India",ChIJhQ_RDvdjUjoRfidj0FktDPo,"Elango Nagar, Elango Nagar, Chennai"
Elango Nagar,84,stop2,Virugambakkam Market,13.0537182,80.1906046,13.053718421346069,80.19054629048468,"Elango Nagar, Virugambakkam, Chennai, Tamil Nadu 600092, India",ChIJq_ADTspmUjoRpJk4pUlDqHc,"Virugambakkam Market, Elango Nagar, Chennai"
Elango Nagar,84,stop3,Kesavarthini,13.042341,80.180556,13.042318100000001,80.1805631,"Kesavarthini, Fathima Nagar, Chennai, Tamil Nadu 600087, India",ChIJZYX0Zy5hUjoRHL5L0qTzFmY,"Kesavarthini, Elango Nagar, Chennai"
Elango Nagar,84,stop4,Friends Park Hotel,13.0537182,80.1906046,13.053718421346069,80.19054629048468,"Elango Nagar, Virugambakkam, Chennai, Tamil Nadu 600092, India",ChIJq_ADTspmUjoRpJk4pUlDqHc,"Friends Park Hotel, Elango Nagar, Chennai"
Elango Nagar,84,stop5,Lakshmi Nagar,13.0537182,80.1906046,13.053718421346069,80.19054629048468,"Elango Nagar, Virugambakkam, Chennai, Tamil Nadu 600092, India",ChIJq_ADTspmUjoRpJk4pUlDqHc,"Lakshmi Nagar, Elango Nagar, Chennai"
Elango Nagar,84,stop6,Saibaba Koil (Kumanan Chavadi),13.0537182,80.1906046,13.053718421346069,80.19054629048468,"Elango Nagar, Virugambakkam, Chennai, Tamil Nadu 600092, India",ChIJq_ADTspmUjoRpJk4pUlDqHc,"Saibaba Koil (Kumanan Chavadi), Elango Nagar, Chennai"
Valluvarkottam,85,stop1,Valluvarkottam,13.0609596,80.2430459,13.0609596,80.2430459,"Valluvar Kottam High Rd, Chennai, Tamil Nadu, India",ChIJSS-e2WdmUjoRDLXS9Cpi1f4,"Valluvarkottam, Valluvarkottam, Chennai"
Valluvarkottam,85,stop2,Madras Coffee House,13.0609596,80.2430459,13.0609596,80.2430459,"Valluvar Kottam High Rd, Chennai, Tamil Nadu, India",ChIJSS-e2WdmUjoRDLXS9Cpi1f4,"Madras Coffee House, Valluvarkottam, Chennai"
Valluvarkottam,85,stop3,Kannadasan Silai,13.0609596,80.2430459,13.0609596,80.2430459,"Valluvar Kottam High Rd, Chennai, Tamil Nadu, India",ChIJSS-e2WdmUjoRDLXS9Cpi1f4,"Kannadasan Silai, Valluvarkottam, Chennai"
Valluvarkottam,85,stop4,Panagal Park,13.0609596,80.2430459,13.0609596,80.2430459,"Valluvar Kottam High Rd, Chennai, Tamil Nadu, India",ChIJSS-e2WdmUjoRDLXS9Cpi1f4,"Panagal Park, Valluvarkottam, Chennai"
Valluvarkottam,85,stop5,Nalli Silks,13.0609596,80.2430459,13.0609596,80.2430459,"Valluvar Kottam High Rd, Chennai, Tamil Nadu, India",ChIJSS-e2WdmUjoRDLXS9Cpi1f4,"Nalli Silks, Valluvarkottam, Chennai"
Valluvarkottam,85,stop6,SRM Hospitel,13.0418126,80.2247068,13.041753115971572,80.22492083520383,"Thambiah Road, 68, Duraiswamy Subway, Gokulam Colony, Ramakrishnapuram, West Mambalam, Chennai, Tamil Nadu 600033, India",ChIJL4d9jf1dUjoRDGbe5awFvg8,"SRM Hospitel, Valluvarkottam, Chennai"
Valluvarkottam,85,stop7,J.P.Road (West Mambalam),13.0437412,80.220984,13.043741014122828,80.22098478146722,"J P St, West Mambalam, Chennai, Tamil Nadu 600033, India",EjhKIFAgU3QsIFdlc3QgTWFtYmFsYW0sIENoZW5uYWksIFRhbWlsIE5hZHUgNjAwMDMzLCBJbmRpYSIuKiwKFAoSCSE1gc36ZlI6EVVp2t01CGAmEhQKEgkr6Heb_WZSOhFiYfZ54U45uQ,"J.P.Road (West Mambalam), Valluvarkottam, Chennai"
Valluvarkottam,85,stop8,Ayodhya Mandapam,13.0391111,80.22097649999999,13.038913350403838,80.22094268401888,"47, Aryagowda Rd, SM Nagar, Vivekanandapuram, West Mambalam, Chennai, Tamil Nadu 600033, India",ChIJMfvMSuNmUjoRSN9WwsFLoiA,"Ayodhya Mandapam, Valluvarkottam, Chennai"
Valluvarkottam,85,stop9,Postal Colony,13.0609596,80.2430459,13.0609596,80.2430459,"Valluvar Kottam High Rd, Chennai, Tamil Nadu, India",ChIJSS-e2WdmUjoRDLXS9Cpi1f4,"Postal Colony, Valluvarkottam, Chennai"
Valluvarkottam,85,stop10,Sangamam Hotel,13.0609596,80.2430459,13.0609596,80.2430459,"Valluvar Kottam High Rd, Chennai, Tamil Nadu, India",ChIJSS-e2WdmUjoRDLXS9Cpi1f4,"Sangamam Hotel, Valluvarkottam, Chennai"
Valluvarkottam,85,stop11,Ambica Empire Hotel,13.0557401,80.21116549999999,13.055754448833062,80.21094888909829,"79, Jawaharlal Nehru Salai, Thiru Nagar Colony, NGO Colony, Vadapalani, Chennai, Tamil Nadu 600026, India",ChIJrV9qfUteUjoR1kJK_CZdxVE,"Ambica Empire Hotel, Valluvarkottam, Chennai"
CIT nagar,86,stop1,CIT Nagar Bus Stop,13.0299082,80.2308881,13.029907337041331,80.23087483754303,"C.I.T. Nagar, CIT 1st Main Rd, CIT Nagar West, CIT Nagar, Chennai, Tamil Nadu 600035, India",ChIJ51Z8tgBnUjoRDVaEWSUXcDU,"CIT Nagar Bus Stop, CIT nagar, Chennai"
CIT nagar,86,stop2,Vasanth & Co,13.0477673,80.2333146,13.047786392072188,80.23322236732972,"1, Land Mark, Malabar Gold, Opposite 31, N Usman Rd, Parthasarathi Puram, T. Nagar, Chennai, Tamil Nadu 600017, India",ChIJr7PRKFZmUjoRcPKu6BngwRc,"Vasanth & Co, CIT nagar, Chennai"
CIT nagar,86,stop3,Aranganathan Sub Way,13.028086,80.2257831,13.028086,80.2257831,"Aranganathan Subway Rd, CIT Nagar, Chennai, Tamil Nadu, India",Ej1BcmFuZ2FuYXRoYW4gU3Vid2F5IFJkLCBDSVQgTmFnYXIsIENoZW5uYWksIFRhbWlsIE5hZHUsIEluZGlhIi4qLAoUChIJE7_ZbARnUjoRBH1lPJ3Q-pUSFAoSCXFVTIWqZ1I6EbMdPnrCzBw3,"Aranganathan Sub Way, CIT nagar, Chennai"
CIT nagar,86,stop4,Srinivasa Theatre,13.0312395,80.223916,13.031155939396093,80.22392797234987,"Srinivasa Theatre, Reddi Kuppam, West Mambalam, Chennai, Tamil Nadu 600033, India",ChIJWY60GgNnUjoRLddlou8aYAc,"Srinivasa Theatre, CIT nagar, Chennai"
CIT nagar,86,stop5,Metupalayam,13.0311989,80.2277232,13.031119394623545,80.22771195043312,"CIT Nagar, Chennai, Tamil Nadu, India",ChIJcVVMhapnUjoRsx0-esLMHDc,"Metupalayam, CIT nagar, Chennai"
CIT nagar,86,stop6,Blue Tank,13.0250115,80.2220531,13.025055258711689,80.22204824042588,"46,Kurinji siddha varma clinic, Karaneeswarar Koil St, Suriyammapet, Saidapet, Chennai, Tamil Nadu 600015, India",ChIJScF4HNBnUjoRjh9QE6eNk0w,"Blue Tank, CIT nagar, Chennai"
Ashok Pillar,87,stop1,Kasi Theatre,13.032187,80.209715,13.032183161739969,80.20972852330625,"Kasi Theatre, Mettuppalayam, Ashok Nagar, Chennai, Tamil Nadu 600083, India",ChIJdVvDJyBnUjoRvPanXzB_-Iw,"Kasi Theatre, Ashok Pillar, Chennai"
Ashok Pillar,87,stop2,Ekkatuthangal,13.0373222,80.2123115,13.037311427136515,80.21231145771267,"Ashok Nagar, Chennai, Tamil Nadu, India",ChIJo4itdN5mUjoR1Bs8eIgthA0,"Ekkatuthangal, Ashok Pillar, Chennai"
Ashok Pillar,87,stop3,Ramapuram,13.0373222,80.2123115,13.037311427136515,80.21231145771267,"Ashok Nagar, Chennai, Tamil Nadu, India",ChIJo4itdN5mUjoR1Bs8eIgthA0,"Ramapuram, Ashok Pillar, Chennai"
Ashok Pillar,87,stop4,Porur Sivan kovil,13.0360236,80.151941,13.036212481436856,80.15192935799861,"Retteri,, 25P2+CQ4, Porur Lake, Jaya Nagar, Porur, Chennai, Tamil Nadu 600116, India",ChIJ9f4GEgNhUjoREx6NtCpGAyU,"Porur Sivan kovil, Ashok Pillar, Chennai"
KK.Nagar (Sivan Park),88,stop1,Sivan Park,13.0417753,80.2049487,13.04172795542284,80.2052617559392,"Sivan Park, PV Rajamannar Salai, Kannigapuram, Sector 3, K. K. Nagar, Chennai, Tamil Nadu 600078, India",ChIJM61CbtxmUjoR7siSeWwbNbo,"Sivan Park, KK.Nagar (Sivan Park), Chennai"
KK.Nagar (Sivan Park),88,stop2,K.K.Nagar Pillaiyar koil,13.0417753,80.2049487,13.04172795542284,80.2052617559392,"Sivan Park, PV Rajamannar Salai, Kannigapuram, Sector 3, K. K. Nagar, Chennai, Tamil Nadu 600078, India",ChIJM61CbtxmUjoR7siSeWwbNbo,"K.K.Nagar Pillaiyar koil, KK.Nagar (Sivan Park), Chennai"
KK.Nagar (Sivan Park),88,stop3,Hotel Saravana Bhavan,13.0417753,80.2049487,13.04172795542284,80.2052617559392,"Sivan Park, PV Rajamannar Salai, Kannigapuram, Sector 3, K. K. Nagar, Chennai, Tamil Nadu 600078, India",ChIJM61CbtxmUjoR7siSeWwbNbo,"Hotel Saravana Bhavan, KK.Nagar (Sivan Park), Chennai"
KK.Nagar (Sivan Park),88,stop4,MGR Nagar Market,13.0417753,80.2049487,13.04172795542284,80.2052617559392,"Sivan Park, PV Rajamannar Salai, Kannigapuram, Sector 3, K. K. Nagar, Chennai, Tamil Nadu 600078, India",ChIJM61CbtxmUjoR7siSeWwbNbo,"MGR Nagar Market, KK.Nagar (Sivan Park), Chennai"
KK.Nagar (Sivan Park),88,stop5,Ajantha,13.0417753,80.2049487,13.04172795542284,80.2052617559392,"Sivan Park, PV Rajamannar Salai, Kannigapuram, Sector 3, K. K. Nagar, Chennai, Tamil Nadu 600078, India",ChIJM61CbtxmUjoR7siSeWwbNbo,"Ajantha, KK.Nagar (Sivan Park), Chennai"
KK.Nagar (Sivan Park),88,stop6,vVirugambakkam Vembuliyamman Koil,13.0418046,80.1886895,13.041803816453296,80.1891285901734,"25RQ+PFG, Vembuliamman Koil St, Vetri Nagar, Annaji Nagar, KK Nagar West, K. K. Nagar, Chennai, Tamil Nadu 600078, India",ChIJaT3xBABnUjoRY1XyutXwxVI,"vVirugambakkam Vembuliyamman Koil, KK.Nagar (Sivan Park), Chennai"
Nesapakkam,89,stop1,Nesapakkam Bus Stand,13.0464305,80.201915,13.04643090348649,80.20188762782865,"Passport Seva Kendra, Bharani Colony, Vijayaraghavapuram, Saligramam, Chennai, Tamil Nadu 600093, India",ChIJqzX3YQBnUjoRuD3qmLkSzBs,"Nesapakkam Bus Stand, Nesapakkam, Chennai"
Nesapakkam,89,stop2,Pondichery Guest House,13.0418584,80.1939078,13.041770413099252,80.19389524279562,"Pondicherry Guest House, Ramaswamy Salai, Santhiniketan Colony, Sector 10, K. K. Nagar, Chennai, Tamil Nadu 600083, India",ChIJv7OHedFmUjoR1riId3iRrsk,"Pondichery Guest House, Nesapakkam, Chennai"
Porur Ramachandra,90,stop1,Ramachandra,13.0407012,80.1428688,13.040665127791698,80.1430984080921,"Ramachandra Medical College, Trunk Rd, Sri Ramachandra Nagar, Porur, Chennai, Tamil Nadu 600116, India",ChIJf5NPI01hUjoRugrN8w6b59s,"Ramachandra, Porur Ramachandra, Chennai"
Porur Ramachandra,90,stop2,Ambedkar Statue,13.0472525,80.1544792,13.047322513500639,80.15447231213973,"240, 12th St, Porur Garden-I, Porur Gardens, Vanagaram, Chennai, Tamil Nadu 600116, India",ChIJl2BELJlhUjoRgxcKEoP9WlA,"Ambedkar Statue, Porur Ramachandra, Chennai"
Porur Ramachandra,90,stop3,Kattupakkam Honda Show Room,12.9774141,80.1312815,12.977315234646039,80.13125054297994,"Pasumpon Nagar, Pammal, Chennai, Tamil Nadu 600070, India",ChIJkQir2DpfUjoRl90t_ANrOaA,"Kattupakkam Honda Show Room, Porur Ramachandra, Chennai"
Porur Ramachandra,90,stop4,Maran garden,13.0407012,80.1428688,13.040665127791698,80.1430984080921,"Ramachandra Medical College, Trunk Rd, Sri Ramachandra Nagar, Porur, Chennai, Tamil Nadu 600116, India",ChIJf5NPI01hUjoRugrN8w6b59s,"Maran garden, Porur Ramachandra, Chennai"
Porur Ramachandra,90,stop5,Munisvaran Koil (Kattupakkam),13.0407012,80.1428688,13.040665127791698,80.1430984080921,"Ramachandra Medical College, Trunk Rd, Sri Ramachandra Nagar, Porur, Chennai, Tamil Nadu 600116, India",ChIJf5NPI01hUjoRugrN8w6b59s,"Munisvaran Koil (Kattupakkam), Porur Ramachandra, Chennai"
Porur Bridge,91,stop1,Porur Bus stand,13.0348062,80.1559751,13.03480646260368,80.15597524158372,"MGR Flyover, Porur, Chennai, Tamil Nadu 600116, India",ChIJV0-2uh1hUjoRt4TFNcnTaQU,"Porur Bus stand, Porur Bridge, Chennai"
Porur Bridge,91,stop2,Kattupakkam (Hyundai showroom),13.0348062,80.1559751,13.03480646260368,80.15597524158372,"MGR Flyover, Porur, Chennai, Tamil Nadu 600116, India",ChIJV0-2uh1hUjoRt4TFNcnTaQU,"Kattupakkam (Hyundai showroom), Porur Bridge, Chennai"
Porur Bridge,91,stop3,Kattupakkam Bus stand,13.0348062,80.1559751,13.03480646260368,80.15597524158372,"MGR Flyover, Porur, Chennai, Tamil Nadu 600116, India",ChIJV0-2uh1hUjoRt4TFNcnTaQU,"Kattupakkam Bus stand, Porur Bridge, Chennai"
Porur Bridge,91,stop4,Kattupakkam Muneeswaran Kovil,13.0348062,80.1559751,13.03480646260368,80.15597524158372,"MGR Flyover, Porur, Chennai, Tamil Nadu 600116, India",ChIJV0-2uh1hUjoRt4TFNcnTaQU,"Kattupakkam Muneeswaran Kovil, Porur Bridge, Chennai"
Porur Bridge,91,stop5,Kumanachavdi (EVP Mahal),13.0348062,80.1559751,13.03480646260368,80.15597524158372,"MGR Flyover, Porur, Chennai, Tamil Nadu 600116, India",ChIJV0-2uh1hUjoRt4TFNcnTaQU,"Kumanachavdi (EVP Mahal), Porur Bridge, Chennai"
Iyyappanthangal,92,stop1,Iyyappanthangal,13.0380617,80.1353549,13.03811350975486,80.13537614442544,"Iyyappanthangal, Chennai, Tamil Nadu, India",ChIJv9YSca5hUjoRIYViy3udkbc,"Iyyappanthangal, Iyyappanthangal, Chennai"
Iyyappanthangal,92,stop2,Nazharathpettai bunk,13.0490472,80.149192,13.049045895061242,80.14922853421118,"Gr Floor, Porur Link Rd, Bypass, Chettiyar Agaram St, Subha Giri Nagar, Maduravoyal, Chennai, Adayalampattu, Tamil Nadu 600095, India",ChIJ0wBBsCRhUjoRbZZIUGiX50E,"Nazharathpettai bunk, Iyyappanthangal, Chennai"
Pammal (Therasa School),93,stop1,Therasa School,12.9717888,80.1458109,12.971772529085788,80.14578595458595,"ST. THERESA GIRLS HIGHER SECONDARY SCHOOL-PALLAVARAM, No 1, Rajendra Prasad Road, Pallavaram, Chennai, Tamil Nadu 600043, India",ChIJ41jWBjNeUjoR9bDSkAySa4E,"Therasa School, Pammal (Therasa School), Chennai"
Pammal (Therasa School),93,stop2,Puthur Koil,12.9717888,80.1458109,12.971772529085788,80.14578595458595,"ST. THERESA GIRLS HIGHER SECONDARY SCHOOL-PALLAVARAM, No 1, Rajendra Prasad Road, Pallavaram, Chennai, Tamil Nadu 600043, India",ChIJ41jWBjNeUjoR9bDSkAySa4E,"Puthur Koil, Pammal (Therasa School), Chennai"
Pammal (Therasa School),93,stop3,Krishna Nagar,12.9732524,80.13868699999999,12.973317673023857,80.13869733857915,"Krishna Nagar, Chennai, Tamil Nadu 600075, India",ChIJ8w-Dvs1fUjoRX6z_CbKHtfM,"Krishna Nagar, Pammal (Therasa School), Chennai"
Pammal (Therasa School),93,stop4,Pozhichalur Church,12.9717888,80.1458109,12.971772529085788,80.14578595458595,"ST. THERESA GIRLS HIGHER SECONDARY SCHOOL-PALLAVARAM, No 1, Rajendra Prasad Road, Pallavaram, Chennai, Tamil Nadu 600043, India",ChIJ41jWBjNeUjoR9bDSkAySa4E,"Pozhichalur Church, Pammal (Therasa School), Chennai"
Arunmathi Theatre (Pammal),94,stop1,Arunmathi Theatre,12.9777159,80.1307854,12.97788854342446,80.13083695714204,"Arunmathi Theatre Complex, 4th St, Pasumpon Nagar, Pammal, Chennai, Tamil Nadu 600070, India",ChIJI9Pdf0FfUjoRQs_OFVbTSF8,"Arunmathi Theatre, Arunmathi Theatre (Pammal), Chennai"
Arunmathi Theatre (Pammal),94,stop2,Indian Bank,12.9777159,80.1307854,12.97788854342446,80.13083695714204,"Arunmathi Theatre Complex, 4th St, Pasumpon Nagar, Pammal, Chennai, Tamil Nadu 600070, India",ChIJI9Pdf0FfUjoRQs_OFVbTSF8,"Indian Bank, Arunmathi Theatre (Pammal), Chennai"
Arunmathi Theatre (Pammal),94,stop3,Anakaputhur Amman  Kovil,12.9777159,80.1307854,12.97788854342446,80.13083695714204,"Arunmathi Theatre Complex, 4th St, Pasumpon Nagar, Pammal, Chennai, Tamil Nadu 600070, India",ChIJI9Pdf0FfUjoRQs_OFVbTSF8,"Anakaputhur Amman  Kovil, Arunmathi Theatre (Pammal), Chennai"
Arunmathi Theatre (Pammal),94,stop4,Manikandan Nagar,12.9777159,80.1307854,12.97788854342446,80.13083695714204,"Arunmathi Theatre Complex, 4th St, Pasumpon Nagar, Pammal, Chennai, Tamil Nadu 600070, India",ChIJI9Pdf0FfUjoRQs_OFVbTSF8,"Manikandan Nagar, Arunmathi Theatre (Pammal), Chennai"
Arunmathi Theatre (Pammal),94,stop5,Metha Nagar,12.9777159,80.1307854,12.97788854342446,80.13083695714204,"Arunmathi Theatre Complex, 4th St, Pasumpon Nagar, Pammal, Chennai, Tamil Nadu 600070, India",ChIJI9Pdf0FfUjoRQs_OFVbTSF8,"Metha Nagar, Arunmathi Theatre (Pammal), Chennai"
Arunmathi Theatre (Pammal),94,stop6,Kundrathur Theradi,12.9777159,80.1307854,12.97788854342446,80.13083695714204,"Arunmathi Theatre Complex, 4th St, Pasumpon Nagar, Pammal, Chennai, Tamil Nadu 600070, India",ChIJI9Pdf0FfUjoRQs_OFVbTSF8,"Kundrathur Theradi, Arunmathi Theatre (Pammal), Chennai"
Kundrathur,95,stop1,Mananchery,12.9970857,80.10202679999999,12.997068803245979,80.10212395037813,"38, Saraswathi Basu Nagar, 2nd, W Cross St, opp.to HP petrol pump, Guruvayurappan Nagar, Kundrathur, Manancheri, Chennai, Tamil Nadu 600069, India",ChIJV2ByFgBhUjoRTwovL60hgpA,"Mananchery, Kundrathur, Chennai"
Kundrathur,95,stop2,Andarkuppam,12.9959681,80.1096237,12.996057253685361,80.10965305919694,"Andarkuppam, Pammal Main Rd, Seven Hills Nagar, Thandalam, Paraniputhur, Tamil Nadu 600069, India",ChIJp1iv_g9gUjoRvOa1RtKnds4,"Andarkuppam, Kundrathur, Chennai"
Kundrathur,95,stop3,Sivanthangal,13.0121537,80.0960924,13.0121537,80.0960924,"Sivanthangal, Chikkarayapuram, Chennai, Tamil Nadu 600069, India",ChIJO3-MgJ6KUjoR6f9nXFY_LIU,"Sivanthangal, Kundrathur, Chennai"
Kundrathur,95,stop4,Muthukumaran Bus Stop,12.9897441,80.09407740000002,12.989825234631386,80.09396913260912,"7/32, Bangala Stop, Murugan Kovil Rd, nearby Address: Bangala Stop, Rajeshwari Nagar, Kundrathur, Chennai, Sikkarayapuram, Tamil Nadu 600069, India",ChIJEx9LCgCLUjoR4ha84e6h88Y,"Muthukumaran Bus Stop, Kundrathur, Chennai"
Kundrathur,95,stop5,Pattu Koot Road,13.0269792,80.11083529999999,13.026982188002764,80.11083014332718,"24G6+Q8W, Mangadu Rd, Then Colony, Mangadu, Chennai, Tamil Nadu 600122, India",ChIJm5xICQBhUjoRn6okn4M2RkI,"Pattu Koot Road, Kundrathur, Chennai"
Kundrathur,95,stop6,Mangadu,13.0239864,80.11446590000001,13.023980933430424,80.114464310197,"Mangadu, Chennai, Tamil Nadu, India",ChIJiwn_6y1gUjoRZCvvzq6dASQ,"Mangadu, Kundrathur, Chennai"
Kovur,96,stop1,Moondram Kattalai,13.0050711,80.1111345,13.005067372059798,80.11117927776681,"Moondram Kattalai, Chennai, Tamil Nadu 600128, India",ChIJ0zw2yBlgUjoROIDoTYIRruY,"Moondram Kattalai, Kovur, Chennai"
Kovur,96,stop2,Kovur RTO Office,13.0087298,80.1147636,13.0087949,80.1145094,"2457+FWR, SH 113, Kovur, Adilakshmi Nagar, Chennai, Tamil Nadu 600128, India",ChIJxb714z1gUjoRFtCraFN7rho,"Kovur RTO Office, Kovur, Chennai"
Kovur,96,stop3,Kovur High School,13.009921,80.12049499999999,13.009838605148266,80.12046134809273,"Kovur Government Higher Secondary School, SH 113, Kovur, Chennai, Tamil Nadu 600122, India",ChIJwdw3iT9gUjoRrK63Idaq7a4,"Kovur High School, Kovur, Chennai"
Kovur,96,stop4,Panicherry,13.0108473,80.1177335,13.010664756226964,80.11764963283011,"Kovur, Mangadu, Chennai, Tamil Nadu, India",ChIJSVVcOTdgUjoRKlCdcR5NMiE,"Panicherry, Kovur, Chennai"
Kovur,96,stop5,Girugampakkam Bus Stop,13.0050107,80.1105698,13.005010696970434,80.11056983143641,"Bus stop, 30, Periyar Nagar, Nanthavanam Nagar, Nandambakkam, Chennai, Tamil Nadu 600128, India",ChIJTXJNnhdgUjoRhDWi6W8vk5g,"Girugampakkam Bus Stop, Kovur, Chennai"
Kovur,96,stop6,Girugampakkam Lakshmi Kalyanamandapam,13.0108473,80.1177335,13.010664756226964,80.11764963283011,"Kovur, Mangadu, Chennai, Tamil Nadu, India",ChIJSVVcOTdgUjoRKlCdcR5NMiE,"Girugampakkam Lakshmi Kalyanamandapam, Kovur, Chennai"
Kovur,96,stop7,Kolapakkam Bus Stop,13.009926,80.1146074,13.009925080441906,80.11452102154985,"2457+XRH, Kovur, Adilakshmi Nagar, Mangadu, Chennai, Tamil Nadu 600128, India",ChIJmwiPVABhUjoRrhGAoVCP3-Y,"Kolapakkam Bus Stop, Kovur, Chennai"
Kovur,96,stop8,Bai Kadai,13.0099903,80.11448,13.009989881497765,80.11445118109934,"2, Kundrathur Main Rd, Kovur, MS Nagar, Mookambigai Nagar, Porur, Thandalam, Chennai, Tamil Nadu 600069, India",ChIJi7ufBulhUjoRcVfTCjW7L5Y,"Bai Kadai, Kovur, Chennai"
Madhanandapuram,97,stop1,Madhanandapuram Bus Stop,13.0229855,80.1470993,13.0230888037905,80.14711679460862,"24FW+5RX, Kundrathur Main Rd, MS Nagar, Ponni Nagar, Porur, Chennai, Tamil Nadu 600125, India",ChIJRWG4UQBhUjoRaQT2Z_GL1yA,"Madhanandapuram Bus Stop, Madhanandapuram, Chennai"
Madhanandapuram,97,stop2,Madhanandapuram Petrol Bunk,13.0288309,80.1515595,13.028870195249635,80.15159000077662,"SH 113, Ramanatheshwarar Nagar, Porur, Chennai, Tamil Nadu 600125, India",ChIJr75g-PxgUjoRXeE81CyK7_A,"Madhanandapuram Petrol Bunk, Madhanandapuram, Chennai"
Madhanandapuram,97,stop3,Porur EB,13.052296,80.112809,13.052302871756327,80.11276530210868,"Senneerkuppam Electronic Board House, Avadi Rd, Periyar Nagar, Chennai, Tamil Nadu 600056, India",ChIJL90ZZsJhUjoRJwXtxN6FRqc,"Porur EB, Madhanandapuram, Chennai"
Madhanandapuram,97,stop4,Porur  Bridge Down,13.0348062,80.1559751,13.03480646260368,80.15597524158372,"MGR Flyover, Porur, Chennai, Tamil Nadu 600116, India",ChIJV0-2uh1hUjoRt4TFNcnTaQU,"Porur  Bridge Down, Madhanandapuram, Chennai"
Madhanandapuram,97,stop5,Iyappanthangal,13.0228386,80.1463194,13.022836596840007,80.14632148308402,"Madhanandapuram, Chennai, Tamil Nadu, India",ChIJdVf1CPBgUjoR3OPQxhtJdGw,"Iyappanthangal, Madhanandapuram, Chennai"
DLF,98,stop1,DLF,13.0211057,80.1739372,13.02106915032203,80.17406133217223,"1 124, DLF IT Park Rd, Ramapuram, Chennai, Tamil Nadu 600116, India",ChIJowtrKcVgUjoRNMua10ddcKo,"DLF, DLF, Chennai"
DLF,98,stop2,Mugaliwakkam,13.0211057,80.1739372,13.02106915032203,80.17406133217223,"1 124, DLF IT Park Rd, Ramapuram, Chennai, Tamil Nadu 600116, India",ChIJowtrKcVgUjoRNMua10ddcKo,"Mugaliwakkam, DLF, Chennai"
DLF,98,stop3,Mugaliwakkam Bus Stop,13.0217288,80.17454269999999,13.021768516816303,80.1744251960709,"124, Mount Poonamallee Rd, Manapakkam, Chennai, Tamil Nadu 600089, India",ChIJdd3RcSBhUjoRPbU0TfdnUvg,"Mugaliwakkam Bus Stop, DLF, Chennai"
DLF,98,stop4,Saravana Stores,12.9094955,80.22938649999999,12.909623821255238,80.22940462866508,"Saravana Stores, Saravana Stores, Rajiv Gandhi Salai, Sholinganallur, Chennai, Tamil Nadu 600119, India",ChIJ9ax11nxcUjoRU31ycFCLr0Q,"Saravana Stores, DLF, Chennai"
DLF,98,stop5,Police Station,13.0683908,80.214435,13.0683908,80.214435,"Police Station St, MMDA Colony, Arumbakkam, Chennai, Tamil Nadu 600106, India",ChIJZ41ZXpdmUjoRCls6qxZU1dc,"Police Station, DLF, Chennai"
Iyyappanthangal (Reliance Mart),99,stop1,Iyyappanthangal (Reliance Mart),13.0384287,80.1337868,13.038608359058383,80.13386784335832,"No 274, 1st Floor, GJ Center, Mount Poonamallee Rd, VGN Nagar, Iyyappanthangal, Chennai, Tamil Nadu 600056, India",ChIJZYhoYCJhUjoRsoblQ2WXmSA,"Iyyappanthangal (Reliance Mart), Iyyappanthangal (Reliance Mart), Chennai"
Iyyappanthangal (Reliance Mart),99,stop2,Kattupakkam Petrol Bunk,12.9617903,80.131923,12.96178447868106,80.1321921757837,"126, Angalamman Nagar, Nagalkeni, Chromepet, Chennai, Tamil Nadu 600044, India",ChIJWdaezl5fUjoRFLk4y0Y0Yfw,"Kattupakkam Petrol Bunk, Iyyappanthangal (Reliance Mart), Chennai"
Iyyappanthangal (Reliance Mart),99,stop3,E.V.P. Mahal,13.0422021,80.13202989999999,13.042141453439777,80.13219778587862,"Prestige Bella Vista, Moovendhar Nagar, Kattupakkam, Chennai, Tamil Nadu 600056, India",ChIJ4d3QMuVhUjoRWY8lX8m-qDY,"E.V.P. Mahal, Iyyappanthangal (Reliance Mart), Chennai"
NIVH Poonamallee,100,stop1,National Institute for the Visually Handicapped,13.0474398,80.1085533,13.047748948195416,80.10875488133676,"Class Room-3, POONAMALLE BLIND SCHOOL, 522, Trunk Rd, Gandhi Nagar, Poonamallee, Chennai, Tamil Nadu 600056, India",ChIJ762QWdthUjoR9DBVrwfBI1s,"National Institute for the Visually Handicapped, NIVH Poonamallee, Chennai"
NIVH Poonamallee,100,stop2,Govt.Higher Secoundary School,13.0474398,80.1085533,13.047748948195416,80.10875488133676,"Class Room-3, POONAMALLE BLIND SCHOOL, 522, Trunk Rd, Gandhi Nagar, Poonamallee, Chennai, Tamil Nadu 600056, India",ChIJ762QWdthUjoR9DBVrwfBI1s,"Govt.Higher Secoundary School, NIVH Poonamallee, Chennai"
NIVH Poonamallee,100,stop3,Karayanchavadi Bus Stop,13.0474398,80.1085533,13.047748948195416,80.10875488133676,"Class Room-3, POONAMALLE BLIND SCHOOL, 522, Trunk Rd, Gandhi Nagar, Poonamallee, Chennai, Tamil Nadu 600056, India",ChIJ762QWdthUjoR9DBVrwfBI1s,"Karayanchavadi Bus Stop, NIVH Poonamallee, Chennai"
NIVH Poonamallee,100,stop4,Indian Bank,13.0474398,80.1085533,13.047748948195416,80.10875488133676,"Class Room-3, POONAMALLE BLIND SCHOOL, 522, Trunk Rd, Gandhi Nagar, Poonamallee, Chennai, Tamil Nadu 600056, India",ChIJ762QWdthUjoR9DBVrwfBI1s,"Indian Bank, NIVH Poonamallee, Chennai"
NIVH Poonamallee,100,stop5,E.B.Office,13.0474398,80.1085533,13.047748948195416,80.10875488133676,"Class Room-3, POONAMALLE BLIND SCHOOL, 522, Trunk Rd, Gandhi Nagar, Poonamallee, Chennai, Tamil Nadu 600056, India",ChIJ762QWdthUjoR9DBVrwfBI1s,"E.B.Office, NIVH Poonamallee, Chennai"
NIVH Poonamallee,100,stop6,Perumal Koil,13.0474398,80.1085533,13.047748948195416,80.10875488133676,"Class Room-3, POONAMALLE BLIND SCHOOL, 522, Trunk Rd, Gandhi Nagar, Poonamallee, Chennai, Tamil Nadu 600056, India",ChIJ762QWdthUjoR9DBVrwfBI1s,"Perumal Koil, NIVH Poonamallee, Chennai"
NIVH Poonamallee,100,stop7,Golden Apartment (Poonamallee Byepass),13.0474398,80.1085533,13.047748948195416,80.10875488133676,"Class Room-3, POONAMALLE BLIND SCHOOL, 522, Trunk Rd, Gandhi Nagar, Poonamallee, Chennai, Tamil Nadu 600056, India",ChIJ762QWdthUjoR9DBVrwfBI1s,"Golden Apartment (Poonamallee Byepass), NIVH Poonamallee, Chennai"
NIVH Poonamallee,100,stop8,Paraivakkam Signal,13.0474398,80.1085533,13.047748948195416,80.10875488133676,"Class Room-3, POONAMALLE BLIND SCHOOL, 522, Trunk Rd, Gandhi Nagar, Poonamallee, Chennai, Tamil Nadu 600056, India",ChIJ762QWdthUjoR9DBVrwfBI1s,"Paraivakkam Signal, NIVH Poonamallee, Chennai"
Poonamallee Bus stand,101,stop1,Poonamallee ambedkar statue,13.0495193,80.08848669999999,13.049448304018595,80.08850495886442,"23XQ+R95, Ettima Nagar, Poonamallee, Chennai, Tamil Nadu 600056, India",ChIJIVS4X3KKUjoRlUTmmFjxW3k,"Poonamallee ambedkar statue, Poonamallee Bus stand, Chennai"
Poonamallee Ambedkar statue,102,stop1,Poonamallee ambedkar statue,13.0495193,80.08848669999999,13.049448304018595,80.08850495886442,"23XQ+R95, Ettima Nagar, Poonamallee, Chennai, Tamil Nadu 600056, India",ChIJIVS4X3KKUjoRlUTmmFjxW3k,"Poonamallee ambedkar statue, Poonamallee Ambedkar statue, Chennai"
Poonamallee Ambedkar statue,102,stop2,Nazarathpettai,13.0495193,80.08848669999999,13.049448304018595,80.08850495886442,"23XQ+R95, Ettima Nagar, Poonamallee, Chennai, Tamil Nadu 600056, India",ChIJIVS4X3KKUjoRlUTmmFjxW3k,"Nazarathpettai, Poonamallee Ambedkar statue, Chennai"
Poonamallee Ambedkar statue,102,stop3,Chembarambakkam,13.0495193,80.08848669999999,13.049448304018595,80.08850495886442,"23XQ+R95, Ettima Nagar, Poonamallee, Chennai, Tamil Nadu 600056, India",ChIJIVS4X3KKUjoRlUTmmFjxW3k,"Chembarambakkam, Poonamallee Ambedkar statue, Chennai"
Poonamallee Ambedkar statue,102,stop4,RIT Bus stop,13.0472609,80.09453069999999,13.047255626537863,80.09457943648385,"Poonamallee, Chennai, Tamil Nadu, India",ChIJB-ZMSsRhUjoRsOok4P0jm3Q,"RIT Bus stop, Poonamallee Ambedkar statue, Chennai"
Poonamallee Ambedkar statue,102,stop5,Pappanchatram,13.032664,80.0373645,13.032636819536465,80.03738028944359,"Pappanchatram, Pappanchattram, Chembarambakkam, Tamil Nadu 600123, India",ChIJswzir6aLUjoRC1EIM83FovA,"Pappanchatram, Poonamallee Ambedkar statue, Chennai"
Cheyyar,103,stop1,State Bank,12.6618258,79.54346799999999,12.661825621222421,79.54346797225253,"Cheyyar, Tamil Nadu 604407, India",ChIJ8YPKcGXXUjoR9M8LsmB6YEo,"State Bank, Cheyyar, Chennai"
Cheyyar,103,stop2,Soundari Theatre,13.0843007,80.2704622,13.0843007,80.2704622,"Chennai, Tamil Nadu, India",ChIJYTN9T-plUjoRM9RjaAunYW4,"Soundari Theatre, Cheyyar, Chennai"
Cheyyar,103,stop3,Pandiyampakkam,13.0843007,80.2704622,13.0843007,80.2704622,"Chennai, Tamil Nadu, India",ChIJYTN9T-plUjoRM9RjaAunYW4,"Pandiyampakkam, Cheyyar, Chennai"
Cheyyar,103,stop4,Mangal Koot Road,12.6618258,79.54346799999999,12.661825621222421,79.54346797225253,"Cheyyar, Tamil Nadu 604407, India",ChIJ8YPKcGXXUjoR9M8LsmB6YEo,"Mangal Koot Road, Cheyyar, Chennai"
Cheyyar,103,stop5,Mamandur,13.0843007,80.2704622,13.0843007,80.2704622,"Chennai, Tamil Nadu, India",ChIJYTN9T-plUjoRM9RjaAunYW4,"Mamandur, Cheyyar, Chennai"
Cheyyar,103,stop6,Dusi,13.0843007,80.2704622,13.0843007,80.2704622,"Chennai, Tamil Nadu, India",ChIJYTN9T-plUjoRM9RjaAunYW4,"Dusi, Cheyyar, Chennai"
Cheyyar,103,stop7,Iyyangarkulam X road,13.0843007,80.2704622,13.0843007,80.2704622,"Chennai, Tamil Nadu, India",ChIJYTN9T-plUjoRM9RjaAunYW4,"Iyyangarkulam X road, Cheyyar, Chennai"
Cheyyar,103,stop8,Punchaiarasanthangal,13.0843007,80.2704622,13.0843007,80.2704622,"Chennai, Tamil Nadu, India",ChIJYTN9T-plUjoRM9RjaAunYW4,"Punchaiarasanthangal, Cheyyar, Chennai"
Vandavasi,104,stop1,Vandavasi New Bus stand,13.0843007,80.2704622,13.0843007,80.2704622,"Chennai, Tamil Nadu, India",ChIJYTN9T-plUjoRM9RjaAunYW4,"Vandavasi New Bus stand, Vandavasi, Chennai"
Vandavasi,104,stop2,Vandavasi Old Bus stand,13.0843007,80.2704622,13.0843007,80.2704622,"Chennai, Tamil Nadu, India",ChIJYTN9T-plUjoRM9RjaAunYW4,"Vandavasi Old Bus stand, Vandavasi, Chennai"
Vandavasi,104,stop3,Thennangur Bus stand,13.0843007,80.2704622,13.0843007,80.2704622,"Chennai, Tamil Nadu, India",ChIJYTN9T-plUjoRM9RjaAunYW4,"Thennangur Bus stand, Vandavasi, Chennai"
Vandavasi,104,stop4,Manamathi X Road,13.0843007,80.2704622,13.0843007,80.2704622,"Chennai, Tamil Nadu, India",ChIJYTN9T-plUjoRM9RjaAunYW4,"Manamathi X Road, Vandavasi, Chennai"
Vandavasi,104,stop5,Peru Nagar,13.0843007,80.2704622,13.0843007,80.2704622,"Chennai, Tamil Nadu, India",ChIJYTN9T-plUjoRM9RjaAunYW4,"Peru Nagar, Vandavasi, Chennai"
Vandavasi,104,stop6,Mangal X Road,13.0843007,80.2704622,13.0843007,80.2704622,"Chennai, Tamil Nadu, India",ChIJYTN9T-plUjoRM9RjaAunYW4,"Mangal X Road, Vandavasi, Chennai"
Vandavasi,104,stop7,Sevelimedu,13.0843007,80.2704622,13.0843007,80.2704622,"Chennai, Tamil Nadu, India",ChIJYTN9T-plUjoRM9RjaAunYW4,"Sevelimedu, Vandavasi, Chennai"
Vandavasi,104,stop8,Housing Board,12.5024906,79.6026844,12.502478681332102,79.6026823766454,"Vandavasi, Tamil Nadu 604408, India",ChIJP-qlKS0kUzoRgQM-eILnpm0,"Housing Board, Vandavasi, Chennai"
Vandavasi,104,stop9,Kanchipuram collectorate,13.0843007,80.2704622,13.0843007,80.2704622,"Chennai, Tamil Nadu, India",ChIJYTN9T-plUjoRM9RjaAunYW4,"Kanchipuram collectorate, Vandavasi, Chennai"
Uthiramerur,105,stop1,Uthirumerur,13.0843007,80.2704622,13.0843007,80.2704622,"Chennai, Tamil Nadu, India",ChIJYTN9T-plUjoRM9RjaAunYW4,"Uthirumerur, Uthiramerur, Chennai"
Uthiramerur,105,stop2,Karuvappampoondi,13.0843007,80.2704622,13.0843007,80.2704622,"Chennai, Tamil Nadu, India",ChIJYTN9T-plUjoRM9RjaAunYW4,"Karuvappampoondi, Uthiramerur, Chennai"
Uthiramerur,105,stop3,Manalmedu,13.0843007,80.2704622,13.0843007,80.2704622,"Chennai, Tamil Nadu, India",ChIJYTN9T-plUjoRM9RjaAunYW4,"Manalmedu, Uthiramerur, Chennai"
Uthiramerur,105,stop4,Vengacherry,13.0843007,80.2704622,13.0843007,80.2704622,"Chennai, Tamil Nadu, India",ChIJYTN9T-plUjoRM9RjaAunYW4,"Vengacherry, Uthiramerur, Chennai"
Uthiramerur,105,stop5,Magaral,13.0843007,80.2704622,13.0843007,80.2704622,"Chennai, Tamil Nadu, India",ChIJYTN9T-plUjoRM9RjaAunYW4,"Magaral, Uthiramerur, Chennai"
Uthiramerur,105,stop6,Arpakkam,13.0843007,80.2704622,13.0843007,80.2704622,"Chennai, Tamil Nadu, India",ChIJYTN9T-plUjoRM9RjaAunYW4,"Arpakkam, Uthiramerur, Chennai"
Uthiramerur,105,stop7,Kalakatur,13.0843007,80.2704622,13.0843007,80.2704622,"Chennai, Tamil Nadu, India",ChIJYTN9T-plUjoRM9RjaAunYW4,"Kalakatur, Uthiramerur, Chennai"
Uthiramerur,105,stop8,Kuruvimalai,13.0843007,80.2704622,13.0843007,80.2704622,"Chennai, Tamil Nadu, India",ChIJYTN9T-plUjoRM9RjaAunYW4,"Kuruvimalai, Uthiramerur, Chennai"
Uthiramerur,105,stop9,Orikkai,13.0843007,80.2704622,13.0843007,80.2704622,"Chennai, Tamil Nadu, India",ChIJYTN9T-plUjoRM9RjaAunYW4,"Orikkai, Uthiramerur, Chennai"
Uthiramerur,105,stop10,Miltary Road,13.0843007,80.2704622,13.0843007,80.2704622,"Chennai, Tamil Nadu, India",ChIJYTN9T-plUjoRM9RjaAunYW4,"Miltary Road, Uthiramerur, Chennai"
Uthiramerur,105,stop11,KK Nagar,12.6148734,79.7593693,12.614866776542936,79.75921941042375,"Uthiramerur, Tamil Nadu 603406, India",ChIJRdCYUxngUjoRuGTXxvKI4_s,"KK Nagar, Uthiramerur, Chennai"
Uthiramerur,105,stop12,Keel Gate,13.0843007,80.2704622,13.0843007,80.2704622,"Chennai, Tamil Nadu, India",ChIJYTN9T-plUjoRM9RjaAunYW4,"Keel Gate, Uthiramerur, Chennai"
Uthiramerur,105,stop13,Keeramandapam,13.0843007,80.2704622,13.0843007,80.2704622,"Chennai, Tamil Nadu, India",ChIJYTN9T-plUjoRM9RjaAunYW4,"Keeramandapam, Uthiramerur, Chennai"
Kancheepuram,106,stop1,Kancheepuram Bus Stand,12.8356114,79.7051222,12.83549917708506,79.70510666240772,"9, Kanchipuram - Chengalpattu Rd, Bavaji Nagar, Pillaiyarpalayam, Kanchipuram, Tamil Nadu 631501, India",ChIJga01AlfCUjoRd5SZYOHihDM,"Kancheepuram Bus Stand, Kancheepuram, Chennai"
Kancheepuram,106,stop2,Ekambaranathar temple,12.8459644,79.70021679999999,12.845838935242583,79.70016694476,"Ekambaranathar, koil, Kanchipuram, Tamil Nadu 631502, India",ChIJmU263U3CUjoRBaX11rQM2Qg,"Ekambaranathar temple, Kancheepuram, Chennai"
Kancheepuram,106,stop3,Ponnerikarai,13.0843007,80.2704622,13.0843007,80.2704622,"Chennai, Tamil Nadu, India",ChIJYTN9T-plUjoRM9RjaAunYW4,"Ponnerikarai, Kancheepuram, Chennai"
Kancheepuram,106,stop4,Kancheepuram RTO Office,13.0843007,80.2704622,13.0843007,80.2704622,"Chennai, Tamil Nadu, India",ChIJYTN9T-plUjoRM9RjaAunYW4,"Kancheepuram RTO Office, Kancheepuram, Chennai"
Kancheepuram,106,stop5,Sunguvarchatram,13.0843007,80.2704622,13.0843007,80.2704622,"Chennai, Tamil Nadu, India",ChIJYTN9T-plUjoRM9RjaAunYW4,"Sunguvarchatram, Kancheepuram, Chennai"
Walajabad,107,stop1,New Police Station,13.0843007,80.2704622,13.0843007,80.2704622,"Chennai, Tamil Nadu, India",ChIJYTN9T-plUjoRM9RjaAunYW4,"New Police Station, Walajabad, Chennai"
Walajabad,107,stop2,Chetty Street,12.7947909,79.82127000000001,12.794337099999998,79.82107649999999,"Walajabad, Tamil Nadu 631605, India",ChIJ2wyqSwLmUjoRpIpkWshK9ow,"Chetty Street, Walajabad, Chennai"
Walajabad,107,stop3,Perumal Koil,13.0843007,80.2704622,13.0843007,80.2704622,"Chennai, Tamil Nadu, India",ChIJYTN9T-plUjoRM9RjaAunYW4,"Perumal Koil, Walajabad, Chennai"
Walajabad,107,stop4,Tollgate,12.7947909,79.82127000000001,12.794337099999998,79.82107649999999,"Walajabad, Tamil Nadu 631605, India",ChIJ2wyqSwLmUjoRpIpkWshK9ow,"Tollgate, Walajabad, Chennai"
Walajabad,107,stop5,Periyar Nagar,12.7947909,79.82127000000001,12.794337099999998,79.82107649999999,"Walajabad, Tamil Nadu 631605, India",ChIJ2wyqSwLmUjoRpIpkWshK9ow,"Periyar Nagar, Walajabad, Chennai"
Walajabad,107,stop6,Pachaiyappa's College,12.7947909,79.82127000000001,12.794337099999998,79.82107649999999,"Walajabad, Tamil Nadu 631605, India",ChIJ2wyqSwLmUjoRpIpkWshK9ow,"Pachaiyappa's College, Walajabad, Chennai"
Rangasamy Kulam,108,stop1,Rengasamy Kulam,12.9590879,80.1873666,12.959087899999993,80.1873666,"Rengasamy St, Arunachalam Nagar, Keelkattalai, Chennai, Tamil Nadu 600117, India",ChIJZwmFAXZeUjoR1Yu-HSGgRg0,"Rengasamy Kulam, Rangasamy Kulam, Chennai"
Rangasamy Kulam,108,stop2,Mungelmandapam,13.0843007,80.2704622,13.0843007,80.2704622,"Chennai, Tamil Nadu, India",ChIJYTN9T-plUjoRM9RjaAunYW4,"Mungelmandapam, Rangasamy Kulam, Chennai"
Rangasamy Kulam,108,stop3,Thaluk Office,13.0414,80.1662097,13.041281651429207,80.16622120332369,"1-17, Ganesh Nagar, Porur, Chennai, Tamil Nadu 600116, India",ChIJfaRuiiJhUjoRenYpkw--FZo,"Thaluk Office, Rangasamy Kulam, Chennai"
Rangasamy Kulam,108,stop4,Kachepeswarar Koil,13.0843007,80.2704622,13.0843007,80.2704622,"Chennai, Tamil Nadu, India",ChIJYTN9T-plUjoRM9RjaAunYW4,"Kachepeswarar Koil, Rangasamy Kulam, Chennai"
Rangasamy Kulam,108,stop5,Gujarathi Chithiram,12.8242347,79.70975039999999,12.82430474826868,79.70951014224116,"Rangaswamy Kulam, Chinna Kanchipuram, Ennaikaran, Arappanacheri, Tamil Nadu 631501",ChIJCd20qPHCUjoRBE5E3pE2Hh0,"Gujarathi Chithiram, Rangasamy Kulam, Chennai"
Rangasamy Kulam,108,stop6,Oli Mohamed Pettai (Kori),13.0843007,80.2704622,13.0843007,80.2704622,"Chennai, Tamil Nadu, India",ChIJYTN9T-plUjoRM9RjaAunYW4,"Oli Mohamed Pettai (Kori), Rangasamy Kulam, Chennai"
Rangasamy Kulam,108,stop7,Rajalakshmi Cars,12.8242347,79.70975039999999,12.82430474826868,79.70951014224116,"Rangaswamy Kulam, Chinna Kanchipuram, Ennaikaran, Arappanacheri, Tamil Nadu 631501",ChIJCd20qPHCUjoRBE5E3pE2Hh0,"Rajalakshmi Cars, Rangasamy Kulam, Chennai"
Kanchipuram Bus Stand,109,stop1,Ramas Cafe,13.0843007,80.2704622,13.0843007,80.2704622,"Chennai, Tamil Nadu, India",ChIJYTN9T-plUjoRM9RjaAunYW4,"Ramas Cafe, Kanchipuram Bus Stand, Chennai"
Ranipet,110,stop1,Ranipet Old Bus Stand,13.0843007,80.2704622,13.0843007,80.2704622,"Chennai, Tamil Nadu, India",ChIJYTN9T-plUjoRM9RjaAunYW4,"Ranipet Old Bus Stand, Ranipet, Chennai"
Ranipet,110,stop2,Muthukadai,12.9300325,79.3338816,12.930011887407888,79.334039107443,"Muthukadai, Ranipet, Tamil Nadu 632401, India",ChIJmQ1hRHU1rTsRPgSkRK50dLc,"Muthukadai, Ranipet, Chennai"
Ranipet,110,stop3,VC Moottur,13.0843007,80.2704622,13.0843007,80.2704622,"Chennai, Tamil Nadu, India",ChIJYTN9T-plUjoRM9RjaAunYW4,"VC Moottur, Ranipet, Chennai"
Ranipet,110,stop4,Walajapet GH,13.0843007,80.2704622,13.0843007,80.2704622,"Chennai, Tamil Nadu, India",ChIJYTN9T-plUjoRM9RjaAunYW4,"Walajapet GH, Ranipet, Chennai"
Ranipet,110,stop5,Walajapet Bus Stand,13.0843007,80.2704622,13.0843007,80.2704622,"Chennai, Tamil Nadu, India",ChIJYTN9T-plUjoRM9RjaAunYW4,"Walajapet Bus Stand, Ranipet, Chennai"
Ranipet,110,stop6,Housing Board,13.0843007,80.2704622,13.0843007,80.2704622,"Chennai, Tamil Nadu, India",ChIJYTN9T-plUjoRM9RjaAunYW4,"Housing Board, Ranipet, Chennai"
Ranipet,110,stop7,AAA College,13.0843007,80.2704622,13.0843007,80.2704622,"Chennai, Tamil Nadu, India",ChIJYTN9T-plUjoRM9RjaAunYW4,"AAA College, Ranipet, Chennai"
Vellore,111,stop1,Vellore Rountana,13.0843007,80.2704622,13.0843007,80.2704622,"Chennai, Tamil Nadu, India",ChIJYTN9T-plUjoRM9RjaAunYW4,"Vellore Rountana, Vellore, Chennai"
Vellore,111,stop2,Sathuvachari,12.9422134,79.18603019999999,12.942193436876945,79.18603100264669,"Sathuvachari, Vellore, Tamil Nadu 632009, India",ChIJQUEZXXs4rTsR27zVF-0ADaU,"Sathuvachari, Vellore, Chennai"
Vellore,111,stop3,Vallar,12.9235541,79.1330768,12.923537080643044,79.13307801786704,"Vellore, Tamil Nadu, India",ChIJ-4-mH-Y4rTsRXismfZGm3b4,"Vallar, Vellore, Chennai"
Vellore,111,stop4,Puttuthakku,13.0843007,80.2704622,13.0843007,80.2704622,"Chennai, Tamil Nadu, India",ChIJYTN9T-plUjoRM9RjaAunYW4,"Puttuthakku, Vellore, Chennai"
Arakkonam,112,stop1,Vimal School,13.0843007,80.2704622,13.0843007,80.2704622,"Chennai, Tamil Nadu, India",ChIJYTN9T-plUjoRM9RjaAunYW4,"Vimal School, Arakkonam, Chennai"
Arakkonam,112,stop2,Indira Gandhi Statue,13.0843007,80.2704622,13.0843007,80.2704622,"Chennai, Tamil Nadu, India",ChIJYTN9T-plUjoRM9RjaAunYW4,"Indira Gandhi Statue, Arakkonam, Chennai"
Arakkonam,112,stop3,Suvalapet,13.0843007,80.2704622,13.0843007,80.2704622,"Chennai, Tamil Nadu, India",ChIJYTN9T-plUjoRM9RjaAunYW4,"Suvalapet, Arakkonam, Chennai"
Arakkonam,112,stop4,Old Bus Stand,13.0848393,79.666028,13.084893862774695,79.66595987377094,"Arakkonam Old Bus Stand, Arakkonam, Tamil Nadu 631001, India",ChIJR_fkZWy8UjoReTX9X3FV9z8,"Old Bus Stand, Arakkonam, Chennai"
Arakkonam,112,stop5,New Bus Stand,13.0843007,80.2704622,13.0843007,80.2704622,"Chennai, Tamil Nadu, India",ChIJYTN9T-plUjoRM9RjaAunYW4,"New Bus Stand, Arakkonam, Chennai"
Arakkonam,112,stop6,Thakkolam Koot Road,13.0843007,80.2704622,13.0843007,80.2704622,"Chennai, Tamil Nadu, India",ChIJYTN9T-plUjoRM9RjaAunYW4,"Thakkolam Koot Road, Arakkonam, Chennai"
Arakkonam,112,stop7,Kadambanallur,13.0843007,80.2704622,13.0843007,80.2704622,"Chennai, Tamil Nadu, India",ChIJYTN9T-plUjoRM9RjaAunYW4,"Kadambanallur, Arakkonam, Chennai"
Arakkonam,112,stop8,Naidu Mess,13.0843007,80.2704622,13.0843007,80.2704622,"Chennai, Tamil Nadu, India",ChIJYTN9T-plUjoRM9RjaAunYW4,"Naidu Mess, Arakkonam, Chennai"
Arakkonam,112,stop9,Thakkolam E.B,13.0843007,80.2704622,13.0843007,80.2704622,"Chennai, Tamil Nadu, India",ChIJYTN9T-plUjoRM9RjaAunYW4,"Thakkolam E.B, Arakkonam, Chennai"
Arakkonam,112,stop10,Thakkolam Bazzer(Meal),13.0843007,80.2704622,13.0843007,80.2704622,"Chennai, Tamil Nadu, India",ChIJYTN9T-plUjoRM9RjaAunYW4,"Thakkolam Bazzer(Meal), Arakkonam, Chennai"
Arakkonam,112,stop11,Thakkolam Bazzer(Keel),13.0843007,80.2704622,13.0843007,80.2704622,"Chennai, Tamil Nadu, India",ChIJYTN9T-plUjoRM9RjaAunYW4,"Thakkolam Bazzer(Keel), Arakkonam, Chennai"
Arakkonam,112,stop12,Thakkolam Petrol Bunk,13.0843007,80.2704622,13.0843007,80.2704622,"Chennai, Tamil Nadu, India",ChIJYTN9T-plUjoRM9RjaAunYW4,"Thakkolam Petrol Bunk, Arakkonam, Chennai"
Arakkonam,112,stop13,Perampakkam,13.0843007,80.2704622,13.0843007,80.2704622,"Chennai, Tamil Nadu, India",ChIJYTN9T-plUjoRM9RjaAunYW4,"Perampakkam, Arakkonam, Chennai"
Arakkonam,112,stop14,Kattu koot Road,12.9230284,80.1868088,12.9230284,80.1868088,"Koot Rd, United Colony, Medavakkam, Chennai, Tamil Nadu 600100, India",ChIJ_xM9MJ5eUjoRpB6afBZE1g4,"Kattu koot Road, Arakkonam, Chennai"
Senthamangalam,113,stop1,Senthamangalam,13.0843007,80.2704622,13.0843007,80.2704622,"Chennai, Tamil Nadu, India",ChIJYTN9T-plUjoRM9RjaAunYW4,"Senthamangalam, Senthamangalam, Chennai"
Senthamangalam,113,stop2,Attupakkam Koot Road,12.9230284,80.1868088,12.9230284,80.1868088,"Koot Rd, United Colony, Medavakkam, Chennai, Tamil Nadu 600100, India",ChIJ_xM9MJ5eUjoRpB6afBZE1g4,"Attupakkam Koot Road, Senthamangalam, Chennai"
Senthamangalam,113,stop3,Illuppaithandalam,13.0843007,80.2704622,13.0843007,80.2704622,"Chennai, Tamil Nadu, India",ChIJYTN9T-plUjoRM9RjaAunYW4,"Illuppaithandalam, Senthamangalam, Chennai"
Senthamangalam,113,stop4,Parameswaramangalam,13.0843007,80.2704622,13.0843007,80.2704622,"Chennai, Tamil Nadu, India",ChIJYTN9T-plUjoRM9RjaAunYW4,"Parameswaramangalam, Senthamangalam, Chennai"
Senthamangalam,113,stop5,Thakkolam koot Road,13.0843007,80.2704622,13.0843007,80.2704622,"Chennai, Tamil Nadu, India",ChIJYTN9T-plUjoRM9RjaAunYW4,"Thakkolam koot Road, Senthamangalam, Chennai"
Senthamangalam,113,stop6,Kadambanallur,13.0843007,80.2704622,13.0843007,80.2704622,"Chennai, Tamil Nadu, India",ChIJYTN9T-plUjoRM9RjaAunYW4,"Kadambanallur, Senthamangalam, Chennai"
Senthamangalam,113,stop7,Naidu Mess,11.2813371,78.2357948,11.281337369260587,78.23579321256062,"Senthamangalam, Tamil Nadu 637409, India",ChIJuU2u6ZrIqzsRHn2_BthPnhA,"Naidu Mess, Senthamangalam, Chennai"
Senthamangalam,113,stop8,Thakkolam E.B,13.0843007,80.2704622,13.0843007,80.2704622,"Chennai, Tamil Nadu, India",ChIJYTN9T-plUjoRM9RjaAunYW4,"Thakkolam E.B, Senthamangalam, Chennai"
Senthamangalam,113,stop9,Thakkolam Bazzar(Up),13.0843007,80.2704622,13.0843007,80.2704622,"Chennai, Tamil Nadu, India",ChIJYTN9T-plUjoRM9RjaAunYW4,"Thakkolam Bazzar(Up), Senthamangalam, Chennai"
Senthamangalam,113,stop10,Thakkolam Bazzar(Down),13.0843007,80.2704622,13.0843007,80.2704622,"Chennai, Tamil Nadu, India",ChIJYTN9T-plUjoRM9RjaAunYW4,"Thakkolam Bazzar(Down), Senthamangalam, Chennai"
Senthamangalam,113,stop11,Thakkolam Petrol Bunk,13.0843007,80.2704622,13.0843007,80.2704622,"Chennai, Tamil Nadu, India",ChIJYTN9T-plUjoRM9RjaAunYW4,"Thakkolam Petrol Bunk, Senthamangalam, Chennai"
Senthamangalam,113,stop12,Perampakkam,12.8923157,80.1888917,12.892331634557866,80.18889634765986,"Perumbakkam, Chennai, Tamil Nadu 600131, India",ChIJz5kzWA5cUjoRMCrjHpSgGRM,"Perampakkam, Senthamangalam, Chennai"
Senthamangalam,113,stop13,Kattu koot Road,11.2813371,78.2357948,11.281337369260587,78.23579321256062,"Senthamangalam, Tamil Nadu 637409, India",ChIJuU2u6ZrIqzsRHn2_BthPnhA,"Kattu koot Road, Senthamangalam, Chennai"
Sholingur,114,stop1,Sholingur Bus Stand,12.9683412,80.19615540000001,12.96834138347783,80.19627397373185,"Bus Stand, 120, Ponniamman Koil St, Ram Nagar, Near, Ottiyambakkam, Chennai, Tamil Nadu 600130, India",ChIJY1i3VOZdUjoRhxNnqMdYYMA,"Sholingur Bus Stand, Sholingur, Chennai"
Sholingur,114,stop2,Karumaiamman Koil,12.9039041,80.195932,12.9039041,80.195932,"Karumariamman Kovil St, Chennai, Tamil Nadu 600100, India",ChIJ68-hzQVcUjoRMwYTvKH2beo,"Karumaiamman Koil, Sholingur, Chennai"
Sholingur,114,stop3,Anjaneyar Kovil,12.982891,80.192087,12.982891956337566,80.19206129977135,"Anjaneyar Kovil, 2nd Main Rd, Macmillan Colony, Nanganallur, Chennai, Tamil Nadu 600061, India",ChIJs0Xxo_5dUjoRWtTgh_npdY0,"Anjaneyar Kovil, Sholingur, Chennai"
Sholingur,114,stop4,Sholigur Textile Mill,13.0843007,80.2704622,13.0843007,80.2704622,"Chennai, Tamil Nadu, India",ChIJYTN9T-plUjoRM9RjaAunYW4,"Sholigur Textile Mill, Sholingur, Chennai"
Sholingur,114,stop5,Paranchi,12.9009877,80.2279301,12.901004956777964,80.22781303104976,"Sholinganallur, Chennai, Tamil Nadu, India",ChIJGzh_3nlbUjoRGz_-itQtu_8,"Paranchi, Sholingur, Chennai"
Sholingur,114,stop6,Salai,13.0843007,80.2704622,13.0843007,80.2704622,"Chennai, Tamil Nadu, India",ChIJYTN9T-plUjoRM9RjaAunYW4,"Salai, Sholingur, Chennai"
Sholingur,114,stop7,Chitteri,12.9009877,80.2279301,12.901004956777964,80.22781303104976,"Sholinganallur, Chennai, Tamil Nadu, India",ChIJGzh_3nlbUjoRGz_-itQtu_8,"Chitteri, Sholingur, Chennai"
Sholingur,114,stop8,Kummunipet,12.9009877,80.2279301,12.901004956777964,80.22781303104976,"Sholinganallur, Chennai, Tamil Nadu, India",ChIJGzh_3nlbUjoRGz_-itQtu_8,"Kummunipet, Sholingur, Chennai"
Sholingur,114,stop9,Kainoor,12.9009877,80.2279301,12.901004956777964,80.22781303104976,"Sholinganallur, Chennai, Tamil Nadu, India",ChIJGzh_3nlbUjoRGz_-itQtu_8,"Kainoor, Sholingur, Chennai"
Sholingur,114,stop10,Nethaji Nagar,12.966407,80.229894,12.966254354065455,80.22987574540748,"Nethaji Nagar, Anna Nagar, Perungudi, Chennai, Tamil Nadu 600096, India",ChIJP-vQKKBdUjoRiOGAZsGnaqM,"Nethaji Nagar, Sholingur, Chennai"
Sholingur,114,stop11,Windru pet,12.9009877,80.2279301,12.901004956777964,80.22781303104976,"Sholinganallur, Chennai, Tamil Nadu, India",ChIJGzh_3nlbUjoRGz_-itQtu_8,"Windru pet, Sholingur, Chennai"
Sholingur,114,stop12,S R Gate,13.0843007,80.2704622,13.0843007,80.2704622,"Chennai, Tamil Nadu, India",ChIJYTN9T-plUjoRM9RjaAunYW4,"S R Gate, Sholingur, Chennai"
Sholingur,114,stop13,Venkatespuram,12.9722584,80.2540865,12.972021757464343,80.25401438676865,"Venkatesapuram, Kottivakkam, Chennai, Tamil Nadu 600041, India",ChIJ_RhiDWpdUjoReEDoDQRWPcc,"Venkatespuram, Sholingur, Chennai"
Sholingur,114,stop14,Perumuchi,13.0429116,79.70072110000001,13.0429116,79.70072110000001,"Perumuchi, Tamil Nadu, India",ChIJtQqijiG8UjoRUzQVL_qY9Ew,"Perumuchi, Sholingur, Chennai"
Sholingur,114,stop15,Pudhukesavaram,13.0161564,79.752901,13.016156399999998,79.752901,"Pudhu Kesavaram, Tamil Nadu 631151, India",ChIJgcYG2neVUjoRGgzgPscmCz0,"Pudhukesavaram, Sholingur, Chennai"
Sholingur,114,stop16,Mettukuppam,12.9416037,80.2362096,12.941611386795318,80.23617677143001,"Thoraipakkam, Tamil Nadu 600097, India",ChIJUQId3vtcUjoRcJI8igea_co,"Mettukuppam, Sholingur, Chennai"
Sholingur,114,stop17,Marimangalam,12.9174603,80.04261,12.9174603,80.04261,"Manimangalam Rd, Tamil Nadu, India",ChIJf363nsD1UjoRKCJgIjMHrUA,"Marimangalam, Sholingur, Chennai"
Sholingur,114,stop18,Narasingapuram,13.0407166,80.0248477,13.040649734361077,80.02501491206469,"Narasingapuram, Tamil Nadu, India",ChIJxZc_J5GLUjoRR2X_6fAKQK4,"Narasingapuram, Sholingur, Chennai"
Sholingur,114,stop19,Koovam,13.0843007,80.2704622,13.0843007,80.2704622,"Chennai, Tamil Nadu, India",ChIJYTN9T-plUjoRM9RjaAunYW4,"Koovam, Sholingur, Chennai"
Sholingur,114,stop20,Mappedu,12.888592,80.13797360000001,12.888496099999998,80.1379345,"Mappedu, Tiruvanchery, Selaiyur, Chennai, Tamil Nadu 600126, India",ChIJw4wCydZYUjoRrAx3gh2kJ3o,"Mappedu, Sholingur, Chennai"
Sholingur,114,stop21,Vooluthai,12.9009877,80.2279301,12.901004956777964,80.22781303104976,"Sholinganallur, Chennai, Tamil Nadu, India",ChIJGzh_3nlbUjoRGz_-itQtu_8,"Vooluthai, Sholingur, Chennai"
Thiruthani,115,stop1,Thirupathi Bypass,13.0843007,80.2704622,13.0843007,80.2704622,"Chennai, Tamil Nadu, India",ChIJYTN9T-plUjoRM9RjaAunYW4,"Thirupathi Bypass, Thiruthani, Chennai"
Thiruthani,115,stop2,Arcot Kuppam,13.0843007,80.2704622,13.0843007,80.2704622,"Chennai, Tamil Nadu, India",ChIJYTN9T-plUjoRM9RjaAunYW4,"Arcot Kuppam, Thiruthani, Chennai"
Thiruthani,115,stop3,Kanakammachathram,13.0843007,80.2704622,13.0843007,80.2704622,"Chennai, Tamil Nadu, India",ChIJYTN9T-plUjoRM9RjaAunYW4,"Kanakammachathram, Thiruthani, Chennai"
Thiruthani,115,stop4,Ramanjeri,13.0843007,80.2704622,13.0843007,80.2704622,"Chennai, Tamil Nadu, India",ChIJYTN9T-plUjoRM9RjaAunYW4,"Ramanjeri, Thiruthani, Chennai"
Thiruthani,115,stop5,Narayanapuram Koot Road,13.1746411,79.611721,13.17462739049172,79.6117456818691,"Thiruttani, Tamil Nadu, India",ChIJG-iWgOikUjoRCKWbUeB_ET8,"Narayanapuram Koot Road, Thiruthani, Chennai"
Thiruthani,115,stop6,Pandur,13.1746411,79.611721,13.17462739049172,79.6117456818691,"Thiruttani, Tamil Nadu, India",ChIJG-iWgOikUjoRCKWbUeB_ET8,"Pandur, Thiruthani, Chennai"
Thiruthani,115,stop7,Thirupachur Bypass,13.1746411,79.611721,13.17462739049172,79.6117456818691,"Thiruttani, Tamil Nadu, India",ChIJG-iWgOikUjoRCKWbUeB_ET8,"Thirupachur Bypass, Thiruthani, Chennai"
Thiruthani,115,stop8,Manavala Nagar Bus Stop,13.0843007,80.2704622,13.0843007,80.2704622,"Chennai, Tamil Nadu, India",ChIJYTN9T-plUjoRM9RjaAunYW4,"Manavala Nagar Bus Stop, Thiruthani, Chennai"
Thiruthani,115,stop9,Pattarai (Indian Oil Petrol Bunk),13.1746411,79.611721,13.17462739049172,79.6117456818691,"Thiruttani, Tamil Nadu, India",ChIJG-iWgOikUjoRCKWbUeB_ET8,"Pattarai (Indian Oil Petrol Bunk), Thiruthani, Chennai"
Thiruthani,115,stop10,Chatram,13.0843007,80.2704622,13.0843007,80.2704622,"Chennai, Tamil Nadu, India",ChIJYTN9T-plUjoRM9RjaAunYW4,"Chatram, Thiruthani, Chennai"
Thiruthani,115,stop11,Mevalurkuppam,13.1746411,79.611721,13.17462739049172,79.6117456818691,"Thiruttani, Tamil Nadu, India",ChIJG-iWgOikUjoRCKWbUeB_ET8,"Mevalurkuppam, Thiruthani, Chennai"
Nemili-Panappakkam,116,stop1,Nemili Bus Stand,13.0843007,80.2704622,13.0843007,80.2704622,"Chennai, Tamil Nadu, India",ChIJYTN9T-plUjoRM9RjaAunYW4,"Nemili Bus Stand, Nemili-Panappakkam, Chennai"
Nemili-Panappakkam,116,stop2,Vetangulam,13.0212637,80.18324580000001,13.021250752947351,80.18328092446596,"Manapakkam, Chennai, Tamil Nadu, India",ChIJ5-F_rsVgUjoRBUEJTeQn6dg,"Vetangulam, Nemili-Panappakkam, Chennai"
Nemili-Panappakkam,116,stop3,Reddyvalam,12.9113292,79.6080967,12.9113292,79.6080967,"Reddivalam, Tamil Nadu, India",ChIJUQyx3VXGUjoR84bDnS7ADDg,"Reddyvalam, Nemili-Panappakkam, Chennai"
Nemili-Panappakkam,116,stop4,Panapakkam,12.9212731,79.5646536,12.921276177801515,79.56465317684554,"Panapakkam, Tamil Nadu 631052, India",ChIJExqmmdPHUjoRy-qMMPp3gWc,"Panapakkam, Nemili-Panappakkam, Chennai"
Nemili-Panappakkam,116,stop5,Damal,13.0212637,80.18324580000001,13.021250752947351,80.18328092446596,"Manapakkam, Chennai, Tamil Nadu, India",ChIJ5-F_rsVgUjoRBUEJTeQn6dg,"Damal, Nemili-Panappakkam, Chennai"
Nemili-Panappakkam,116,stop6,Baluchetti,13.0843007,80.2704622,13.0843007,80.2704622,"Chennai, Tamil Nadu, India",ChIJYTN9T-plUjoRM9RjaAunYW4,"Baluchetti, Nemili-Panappakkam, Chennai"
Nemili-Panappakkam,116,stop7,Ambi Bypass,13.0212637,80.18324580000001,13.021250752947351,80.18328092446596,"Manapakkam, Chennai, Tamil Nadu, India",ChIJ5-F_rsVgUjoRBUEJTeQn6dg,"Ambi Bypass, Nemili-Panappakkam, Chennai"
Nemili-Panappakkam,116,stop8,Ariyaperumbakkam,13.0843007,80.2704622,13.0843007,80.2704622,"Chennai, Tamil Nadu, India",ChIJYTN9T-plUjoRM9RjaAunYW4,"Ariyaperumbakkam, Nemili-Panappakkam, Chennai"
Nemili-Panappakkam,116,stop9,Vellagate (Sakthiganapthy Hotel),13.0212637,80.18324580000001,13.021250752947351,80.18328092446596,"Manapakkam, Chennai, Tamil Nadu, India",ChIJ5-F_rsVgUjoRBUEJTeQn6dg,"Vellagate (Sakthiganapthy Hotel), Nemili-Panappakkam, Chennai"
Nemili-Panappakkam,116,stop10,Meenachi College (KPM),13.0212637,80.18324580000001,13.021250752947351,80.18328092446596,"Manapakkam, Chennai, Tamil Nadu, India",ChIJ5-F_rsVgUjoRBUEJTeQn6dg,"Meenachi College (KPM), Nemili-Panappakkam, Chennai"
Nemili-Panappakkam,116,stop11,Enathur Petrol Bunk,13.0843007,80.2704622,13.0843007,80.2704622,"Chennai, Tamil Nadu, India",ChIJYTN9T-plUjoRM9RjaAunYW4,"Enathur Petrol Bunk, Nemili-Panappakkam, Chennai"
Nemili-Panappakkam,116,stop12,Rajakulam,13.0212637,80.18324580000001,13.021250752947351,80.18328092446596,"Manapakkam, Chennai, Tamil Nadu, India",ChIJ5-F_rsVgUjoRBUEJTeQn6dg,"Rajakulam, Nemili-Panappakkam, Chennai"
Nemili-Panappakkam,116,stop13,Sathankulam,8.4442039,77.9120458,8.444202788611307,77.91204730251256,"Sathankulam, Tamil Nadu 628704, India",ChIJMR20zWV4BDsRsWnlPhgjCbI,"Sathankulam, Nemili-Panappakkam, Chennai"
Nemili-Panappakkam,116,stop14,Chinnachatram,13.0212637,80.18324580000001,13.021250752947351,80.18328092446596,"Manapakkam, Chennai, Tamil Nadu, India",ChIJ5-F_rsVgUjoRBUEJTeQn6dg,"Chinnachatram, Nemili-Panappakkam, Chennai"
Nemili-Panappakkam,116,stop15,Pillaichatram,13.0212637,80.18324580000001,13.021250752947351,80.18328092446596,"Manapakkam, Chennai, Tamil Nadu, India",ChIJ5-F_rsVgUjoRBUEJTeQn6dg,"Pillaichatram, Nemili-Panappakkam, Chennai"
Nemili-Panappakkam,116,stop16,Senthamangalam,13.0212637,80.18324580000001,13.021250752947351,80.18328092446596,"Manapakkam, Chennai, Tamil Nadu, India",ChIJ5-F_rsVgUjoRBUEJTeQn6dg,"Senthamangalam, Nemili-Panappakkam, Chennai"
Nemili-Panappakkam,116,stop17,Santhavellore,13.0212637,80.18324580000001,13.021250752947351,80.18328092446596,"Manapakkam, Chennai, Tamil Nadu, India",ChIJ5-F_rsVgUjoRBUEJTeQn6dg,"Santhavellore, Nemili-Panappakkam, Chennai"
Nemili-Panappakkam,116,stop18,Thirumangalam,13.0212637,80.18324580000001,13.021250752947351,80.18328092446596,"Manapakkam, Chennai, Tamil Nadu, India",ChIJ5-F_rsVgUjoRBUEJTeQn6dg,"Thirumangalam, Nemili-Panappakkam, Chennai"
Nemili-Panappakkam,116,stop19,Mambakkam,13.0521019,80.22552859999999,13.052330048052834,80.22553401768195,"Kodambakkam, Chennai, Tamil Nadu, India",ChIJk9zXZvBmUjoRxckkOmvh6vo,"Mambakkam, Nemili-Panappakkam, Chennai"
Nemili-Panappakkam,116,stop20,Vadamangalam,13.0212637,80.18324580000001,13.021250752947351,80.18328092446596,"Manapakkam, Chennai, Tamil Nadu, India",ChIJ5-F_rsVgUjoRBUEJTeQn6dg,"Vadamangalam, Nemili-Panappakkam, Chennai"
Nemili-Panappakkam,116,stop21,Nokia Gate,13.0212637,80.18324580000001,13.021250752947351,80.18328092446596,"Manapakkam, Chennai, Tamil Nadu, India",ChIJ5-F_rsVgUjoRBUEJTeQn6dg,"Nokia Gate, Nemili-Panappakkam, Chennai"
Nemili-Panappakkam,116,stop22,Sriperumbudur Police Station,12.9637119,79.9492274,12.963696653644044,79.94911984357265,"XW7X+FMQ, Govinda mettu street, Katchipedu, Sriperumbudur, Tamil Nadu 602105, India",ChIJf6_yT8TyUjoR2xcg1h76eds,"Sriperumbudur Police Station, Nemili-Panappakkam, Chennai"
Nemili-Panappakkam,116,stop23,Sriperumbudur Toll gate,12.9624975,79.94527479999999,12.962506375960194,79.94529789797166,"Sriperumbudur, Tamil Nadu, India",ChIJZxyYbMbyUjoRvs8H0-Z8aS4,"Sriperumbudur Toll gate, Nemili-Panappakkam, Chennai"
Padappai,117,stop1,Padappai,12.8865824,80.0216481,12.8865835769415,80.02165279740653,"Padappai, Tamil Nadu 601301, India",ChIJwX1BO6f2UjoR4cO5Yv-xZZc,"Padappai, Padappai, Chennai"
Padappai,117,stop2,Keel Padappai (High School),12.8883235,80.02914009999999,12.888325054666716,80.02908955440306,"V2QH+8MC, Keezhapadapi, Padappai, Tamil Nadu 601301, India",ChIJaf7ueJn3UjoRuLcUGs6TuKQ,"Keel Padappai (High School), Padappai, Chennai"
Padappai,117,stop3,Karasangal,12.8865824,80.0216481,12.8865835769415,80.02165279740653,"Padappai, Tamil Nadu 601301, India",ChIJwX1BO6f2UjoR4cO5Yv-xZZc,"Karasangal, Padappai, Chennai"
Padappai,117,stop4,Manimangalam,12.9093129,80.0246655,12.909335539177155,80.02474416479093,"Pushpagiri, Tamil Nadu 601301, India",ChIJEaGzhB70UjoR2ghHIjnZp70,"Manimangalam, Padappai, Chennai"
Padappai,117,stop5,Naduverpattu,12.8865824,80.0216481,12.8865835769415,80.02165279740653,"Padappai, Tamil Nadu 601301, India",ChIJwX1BO6f2UjoR4cO5Yv-xZZc,"Naduverpattu, Padappai, Chennai"
Padappai,117,stop6,Melnallathur High School,12.8865824,80.0216481,12.8865835769415,80.02165279740653,"Padappai, Tamil Nadu 601301, India",ChIJwX1BO6f2UjoR4cO5Yv-xZZc,"Melnallathur High School, Padappai, Chennai"
Padappai,117,stop7,Pudupet Koot Road,12.8865824,80.0216481,12.8865835769415,80.02165279740653,"Padappai, Tamil Nadu 601301, India",ChIJwX1BO6f2UjoR4cO5Yv-xZZc,"Pudupet Koot Road, Padappai, Chennai"
Padappai,117,stop8,nallur Check post,12.96922,80.03260499999999,12.969287121865726,80.03258595974644,"Nallur Check Post, SH 113, Nallur, Malayambakkam, Tamil Nadu 602109, India",ChIJ2b-t6sf0UjoRoiaTxqxNKZk,"nallur Check post, Padappai, Chennai"
Padappai,117,stop9,Sriperumbudur RTO Office,12.9559172,79.9439397,12.955763543265586,79.94394030824749,"Katchipedu No.79 pattunool chatram Govt Hospital backside, SH 110, Katchipedu, Sriperumbudur, Tamil Nadu 602105, India",ChIJBdSuKcDyUjoRCuZA2bsns2o,"Sriperumbudur RTO Office, Padappai, Chennai"
Padappai,117,stop10,Sriperumbudur High School Stoping,12.955814,79.94233,12.955851120946804,79.94231250938239,"Sriperumbudur High School, Sarala Nagar, Sriperumbudur, Tamil Nadu 602105, India",ChIJc4W2AsDyUjoRRQpkl-Z08Hs,"Sriperumbudur High School Stoping, Padappai, Chennai"
